roll;pitch;heading;rollRate;pitchRate;yawRate;groundSpeed;airSpeed;climbRate;altitudeRelative;altitudeAMSL;flightDistance;flightTime;distanceToHome;headingToNextWP;headingToHome;throttlePct;gps.lat;gps.lon
-0.5;-0.3;0;-0.1;0.1;0.1;0.0;0.0;0.0;0.0;847.3;0.0;00:00:00;0.0;--.--;--.--;0;-19.4679293;-49.1437887
-0.5;-0.3;0;-0.1;0.1;0.0;0.0;0.0;0.0;0.0;847.3;0.0;00:00:00;0.0;--.--;--.--;20;-19.4679292;-49.1437887
-0.5;-0.3;0;-0.2;-0.0;-0.0;0.0;0.0;0.0;0.0;847.3;0.0;00:00:00;0.0;--.--;--.--;50;-19.4679293;-49.1437887
1.0;-0.1;0;10.6;4.2;0.2;0.0;0.0;0.0;0.1;847.3;0.0;00:00:01;0.0;--.--;--.--;70;-19.4679293;-49.1437887
-1.0;-0.6;0;-0.9;-0.3;-0.1;0.1;0.0;0.8;0.6;847.9;0.0;00:00:02;0.1;--.--;--.--;74;-19.4679294;-49.1437881
-1.0;-0.6;0;0.7;-0.5;-4.8;0.0;0.0;1.2;1.7;849.0;0.0;00:00:03;0.1;--.--;--.--;73;-19.4679294;-49.1437874
-0.6;-0.4;0;-0.3;0.2;0.6;0.1;0.0;1.3;2.9;850.2;0.0;00:00:04;0.1;--.--;--.--;73;-19.4679293;-49.1437875
-0.5;-0.4;0;0.2;-0.2;-0.0;0.1;0.0;1.4;4.3;851.5;0.0;00:00:05;0.1;--.--;--.--;73;-19.4679291;-49.1437879
-0.5;-0.3;0;-0.0;0.8;-0.0;0.0;0.0;1.4;5.6;852.9;0.0;00:00:06;0.1;--.--;--.--;73;-19.4679288;-49.1437881
-0.5;-0.3;0;-0.2;-0.2;0.1;0.0;0.0;1.5;7.1;854.4;0.0;00:00:07;0.1;--.--;--.--;73;-19.4679286;-49.1437882
-0.4;-0.4;0;0.3;-0.0;-0.0;0.0;0.0;1.5;8.5;855.8;0.0;00:00:08;0.0;--.--;--.--;73;-19.4679286;-49.1437885
-0.4;-0.3;0;-0.1;0.3;0.2;0.0;0.0;1.5;10.0;857.3;0.0;00:00:09;0.0;--.--;--.--;73;-19.4679286;-49.1437887
-0.4;-0.3;0;-0.1;-0.2;0.0;0.0;0.0;2.0;11.8;859.1;0.0;00:00:10;0.0;--.--;--.--;70;-19.4679287;-49.1437888
-0.3;-0.4;0;0.1;-0.0;0.1;0.0;0.0;1.1;13.0;860.3;0.0;00:00:11;0.0;--.--;--.--;70;-19.4679289;-49.1437888
-0.4;-0.4;0;-0.4;-0.0;0.2;0.0;0.0;0.7;13.8;861.1;0.0;00:00:12;0.0;--.--;--.--;70;-19.4679289;-49.1437888
1.4;-3.0;359;11.0;-23.9;-1.4;0.0;0.0;0.4;14.3;861.6;0.0;00:00:13;0.0;--.--;--.--;70;-19.4679290;-49.1437885
2.1;-19.7;359;0.7;-1.1;0.3;1.6;0.0;0.3;14.6;861.9;0.0;00:00:14;0.9;--.--;--.--;72;-19.4679270;-49.1437877
3.0;-16.1;0;1.0;16.5;-0.5;4.1;0.0;0.1;14.7;862.0;4.1;00:00:15;4.3;--.--;189;72;-19.4678988;-49.1437835
1.8;-9.2;359;-0.3;-1.2;-0.0;4.4;0.0;0.0;14.7;862.0;8.2;00:00:16;8.7;--.--;189;71;-19.4678988;-49.1437835
1.5;-10.0;359;-0.3;-0.4;-0.2;4.4;0.0;-0.0;14.7;862.0;12.3;00:00:17;13.1;--.--;189;71;-19.4678276;-49.1437712
1.4;-10.3;359;0.1;-0.3;0.2;4.5;0.0;-0.0;14.7;862.0;16.4;00:00:18;17.6;--.--;189;71;-19.4677801;-49.1437621
1.2;-10.4;359;-0.4;-0.3;0.2;4.6;0.0;-0.0;14.7;862.0;20.5;00:00:19;22.1;--.--;190;71;-19.4677801;-49.1437621
1.3;-10.5;359;0.4;-0.1;-0.0;4.6;0.0;-0.0;14.7;862.0;26.6;00:00:20;26.8;--.--;190;71;-19.4677478;-49.1437560
1.5;-10.5;359;-0.1;-0.2;0.1;4.7;0.0;-0.0;14.7;862.0;30.7;00:00:21;31.5;--.--;190;71;-19.4677071;-49.1437487
1.6;-10.6;359;-0.0;-0.3;0.0;4.8;0.0;-0.0;14.7;862.0;34.8;00:00:22;36.3;--.--;189;71;-19.4676650;-49.1437415
1.8;-10.6;359;0.3;-0.2;0.1;4.8;0.0;-0.0;14.7;862.0;40.9;00:00:23;41.1;--.--;189;71;-19.4676230;-49.1437343
1.6;-10.7;359;-0.1;0.1;0.1;4.8;0.0;-0.0;14.7;862.0;45.1;00:00:24;45.9;--.--;189;71;-19.4675717;-49.1437256
1.5;-10.8;359;-0.0;0.0;0.2;4.9;0.0;-0.0;14.8;862.0;49.1;00:00:25;50.8;--.--;189;71;-19.4675375;-49.1437194
1.5;-10.7;359;-0.0;0.4;-0.1;4.9;0.0;-0.0;14.8;862.0;55.3;00:00:26;55.6;--.--;189;71;-19.4674854;-49.1437101
1.6;-10.7;359;0.1;-0.1;0.1;4.9;0.0;-0.0;14.8;862.0;59.4;00:00:27;60.5;--.--;189;71;-19.4674507;-49.1437040
1.7;-10.7;359;0.1;-0.1;0.0;4.9;0.0;0.0;14.8;862.0;63.5;00:00:28;65.4;--.--;189;71;-19.4674072;-49.1436966
1.7;-10.7;359;-0.3;-0.1;-0.1;4.9;0.0;0.0;14.7;862.0;69.8;00:00:30;70.2;--.--;189;71;-19.4673633;-49.1436892
1.8;-10.7;0;-0.3;-0.2;0.1;4.9;0.0;0.0;14.7;862.0;74.0;00:00:30;75.1;--.--;189;71;-19.4673189;-49.1436814
1.7;-10.7;0;-0.1;-0.3;0.0;4.9;0.0;0.1;14.7;862.0;80.1;00:00:31;80.1;--.--;189;71;-19.4672664;-49.1436722
1.6;-10.7;359;0.1;0.0;0.2;5.0;0.0;0.1;14.7;862.0;84.3;00:00:32;85.1;--.--;189;71;-19.4672225;-49.1436644
1.6;-10.7;359;-0.1;-0.1;0.1;5.0;0.0;0.0;14.7;862.0;88.4;00:00:33;90.0;--.--;189;71;-19.4671783;-49.1436566
1.8;-10.7;359;0.2;0.1;0.0;5.0;0.0;0.0;14.8;862.0;94.7;00:00:34;95.1;--.--;189;71;-19.4671343;-49.1436489
1.7;-10.7;359;-0.2;-0.3;-0.1;5.0;0.0;0.0;14.8;862.1;98.8;00:00:36;99.8;--.--;189;71;-19.4670902;-49.1436413
1.7;-10.8;359;-0.2;-0.1;0.1;5.0;0.0;0.0;14.8;862.1;103.0;00:00:36;104.7;--.--;189;71;-19.4670550;-49.1436351
1.8;-10.8;359;0.3;-0.3;-0.1;5.0;0.0;0.0;14.8;862.1;109.2;00:00:37;109.5;--.--;189;71;-19.4670106;-49.1436273
1.7;-10.8;359;-0.2;0.1;0.1;5.0;0.0;0.0;14.8;862.1;113.3;00:00:39;114.6;--.--;189;71;-19.4669572;-49.1436179
1.5;-10.8;359;0.3;-0.3;0.1;5.0;0.0;0.0;14.8;862.1;119.3;00:00:39;119.3;--.--;189;71;-19.4669128;-49.1436100
1.6;-10.7;359;0.1;-0.1;-0.1;5.0;0.0;0.0;14.8;862.1;123.4;00:00:41;124.3;--.--;189;71;-19.4668681;-49.1436022
1.7;-10.8;359;0.3;-0.1;-0.0;5.0;0.0;0.0;14.8;862.1;127.4;00:00:41;129.3;--.--;189;71;-19.4668326;-49.1435961
1.8;-10.8;0;0.1;-0.3;0.1;5.0;0.0;0.0;14.8;862.1;133.4;00:00:42;134.3;--.--;189;71;-19.4667792;-49.1435871
1.8;-10.8;359;-0.3;0.1;-0.2;5.0;0.0;0.0;14.8;862.1;137.5;00:00:44;139.2;--.--;189;71;-19.4667345;-49.1435796
1.6;-10.7;359;0.2;-0.2;-0.1;5.0;0.0;0.0;14.8;862.1;143.6;00:00:44;144.4;--.--;189;71;-19.4666900;-49.1435719
1.6;-10.7;0;-0.1;-0.0;0.0;5.0;0.0;0.0;14.8;862.1;147.8;00:00:45;149.2;--.--;189;71;-19.4666458;-49.1435640
1.7;-10.9;359;0.2;-0.7;0.0;5.0;0.0;0.0;14.8;862.1;153.9;00:00:46;154.3;--.--;189;71;-19.4666102;-49.1435576
1.7;-10.9;359;0.2;0.1;0.2;5.0;0.0;0.1;14.8;862.1;158.1;00:00:48;159.1;--.--;189;71;-19.4665661;-49.1435499
1.8;-10.8;359;0.2;0.0;0.0;5.0;0.0;0.0;14.8;862.1;162.2;00:00:48;164.1;--.--;189;71;-19.4665130;-49.1435405
1.7;-10.8;0;-0.1;-0.0;-0.1;5.0;0.0;0.1;14.8;862.1;168.3;00:00:49;169.3;--.--;189;71;-19.4664772;-49.1435343
1.7;-10.7;0;-0.0;-0.3;-0.0;5.0;0.0;0.1;14.8;862.1;172.4;00:00:50;174.3;--.--;189;71;-19.4664236;-49.1435248
1.7;-10.8;0;0.2;-0.2;-0.2;4.9;0.0;0.1;14.8;862.1;178.5;00:00:51;179.3;--.--;189;71;-19.4663791;-49.1435169
1.6;-10.9;359;0.2;-0.1;-0.0;4.9;0.0;0.1;14.8;862.1;182.7;00:00:53;184.2;--.--;189;71;-19.4663439;-49.1435108
1.7;-10.8;0;-0.2;-0.1;0.1;4.9;0.0;0.1;14.8;862.1;188.9;00:00:53;189.2;--.--;189;71;-19.4662904;-49.1435014
1.7;-10.9;359;0.2;0.1;-0.0;5.0;0.0;0.1;14.8;862.1;193.1;00:00:54;194.2;--.--;189;71;-19.4662552;-49.1434953
1.8;-10.8;0;0.2;-0.2;-0.2;5.0;0.0;0.1;14.8;862.1;199.2;00:00:55;199.2;--.--;189;71;-19.4662016;-49.1434860
1.7;-10.8;0;-0.4;0.4;0.1;5.0;0.0;0.1;14.8;862.1;203.3;00:00:56;204.2;--.--;189;71;-19.4661664;-49.1434799
1.6;-11.0;359;0.1;-0.4;-0.1;4.9;0.0;0.1;14.8;862.1;207.3;00:00:57;209.1;--.--;189;71;-19.4661219;-49.1434721
1.9;-10.8;0;0.2;-0.4;-0.2;5.0;0.0;0.1;14.9;862.1;213.6;00:00:58;214.2;--.--;189;71;-19.4660689;-49.1434628
1.9;-10.9;359;0.1;-0.0;-0.1;5.0;0.0;0.1;14.9;862.2;217.7;00:00:59;219.1;--.--;189;71;-19.4660336;-49.1434567
1.7;-10.9;0;-0.4;0.1;-0.0;5.0;0.0;0.1;14.9;862.2;224.1;00:01:00;224.1;--.--;189;71;-19.4659897;-49.1434490
1.7;-10.9;0;0.0;0.2;0.0;5.0;0.0;0.1;14.9;862.2;228.2;00:01:01;229.1;--.--;189;71;-19.4659367;-49.1434395
1.8;-10.9;359;0.1;0.2;0.2;5.0;0.0;0.1;14.9;862.2;232.4;00:01:02;234.1;--.--;189;71;-19.4659015;-49.1434333
1.8;-10.9;359;-0.1;-0.3;0.1;5.0;0.0;0.0;14.9;862.2;238.6;00:01:03;239.0;--.--;189;71;-19.4658572;-49.1434255
1.8;-10.9;0;-0.1;0.3;0.1;5.0;0.0;0.0;15.0;862.2;242.9;00:01:04;244.0;--.--;189;71;-19.4658042;-49.1434164
2.1;-11.7;0;2.5;-16.0;0.2;5.0;0.0;0.0;15.0;862.3;249.0;00:01:05;249.0;--.--;189;71;-19.4657688;-49.1434104
0.1;4.2;359;-1.8;29.1;0.1;4.7;0.0;0.0;15.0;862.3;253.1;00:01:06;253.9;--.--;189;70;-19.4657154;-49.1434012
-1.8;13.7;359;-1.3;6.5;0.4;1.9;0.0;0.0;15.0;862.2;255.2;00:01:07;256.8;189;189;73;-19.4656807;-49.1433953
-2.8;14.3;0;0.4;-2.9;-0.1;1.0;0.0;0.0;15.0;862.3;255.2;00:01:08;256.8;189;189;71;-19.4656493;-49.1433890
-3.4;16.9;359;-0.8;6.6;0.3;2.9;0.0;0.0;15.0;862.3;255.2;00:01:09;254.5;189;189;72;-19.4656498;-49.1433877
-1.7;5.4;0;14.7;-13.0;-0.8;4.2;0.0;-0.0;15.0;862.3;259.2;00:01:10;250.5;189;189;71;-19.4656744;-49.1433907
-1.7;8.6;359;-0.0;1.5;0.1;4.0;0.0;0.0;15.0;862.3;263.3;00:01:11;246.5;189;189;71;-19.4657102;-49.1433974
-1.2;6.0;0;1.1;-17.3;-0.1;4.1;0.0;0.0;15.0;862.3;267.4;00:01:12;242.4;189;189;70;-19.4657464;-49.1434051
-0.3;1.0;359;0.7;-2.6;0.0;3.5;0.0;0.0;15.0;862.3;271.4;00:01:13;238.7;189;189;70;-19.4657753;-49.1434111
0.5;-0.9;359;1.3;-1.3;0.3;2.5;0.0;0.0;15.0;862.3;273.4;00:01:14;235.8;189;189;70;-19.4658154;-49.1434193
4.0;1.2;0;27.6;-7.6;0.2;2.1;0.0;0.0;15.0;862.3;275.4;00:01:15;233.7;125;189;70;-19.4658354;-49.1434234
9.5;-2.8;359;-5.8;2.2;0.9;2.1;0.0;0.0;15.0;862.3;277.4;00:01:16;232.1;125;190;71;-19.4658544;-49.1434267
16.4;13.3;0;-15.4;-0.7;-3.5;3.7;0.0;0.1;15.0;862.3;279.5;00:01:17;231.2;125;190;72;-19.4658726;-49.1434192
7.7;4.6;359;4.2;7.0;0.2;4.5;0.0;0.0;15.0;862.3;285.6;00:01:18;229.6;125;191;71;-19.4658856;-49.1433934
8.3;5.0;0;0.4;-0.1;0.1;4.5;0.0;0.0;14.9;862.2;289.7;00:01:19;228.0;125;192;71;-19.4659029;-49.1433642
0.8;0.8;359;0.4;-4.8;0.4;4.3;0.0;0.0;14.9;862.2;293.8;00:01:20;226.5;125;193;70;-19.4659288;-49.1433207
-0.3;-1.2;0;-1.1;-1.9;-0.1;3.1;0.0;0.1;14.9;862.2;297.9;00:01:21;225.4;125;194;70;-19.4659503;-49.1432848
3.6;2.7;0;12.2;2.2;-0.0;2.1;0.0;0.1;14.9;862.2;299.9;00:01:22;224.6;125;195;70;-19.4659640;-49.1432625
-12.9;7.9;0;15.2;2.8;0.5;1.7;0.0;0.1;14.9;862.2;301.9;00:01:23;223.7;191;195;71;-19.4659760;-49.1432422
-8.8;20.4;359;1.1;7.8;2.4;2.9;0.0;0.1;15.0;862.3;303.9;00:01:24;221.5;191;195;73;-19.4659909;-49.1432274
-2.5;7.8;0;-3.0;-15.4;-0.7;4.6;0.0;0.0;15.0;862.3;308.0;00:01:25;217.2;191;195;71;-19.4660071;-49.1432302
-2.9;9.3;359;0.2;0.8;-0.1;4.5;0.0;0.0;14.9;862.2;312.1;00:01:26;212.6;191;195;71;-19.4660428;-49.1432412
-2.7;9.7;359;0.2;0.4;-0.2;4.6;0.0;0.0;15.0;862.3;318.1;00:01:27;208.0;191;195;71;-19.4660911;-49.1432548
-2.7;9.9;359;-0.0;-0.2;-0.0;4.7;0.0;0.0;15.0;862.3;322.2;00:01:28;203.3;191;195;71;-19.4661230;-49.1432640
-4.1;9.4;0;17.8;3.8;1.0;4.7;0.0;0.0;15.0;862.3;326.3;00:01:29;198.6;196;195;71;-19.4661641;-49.1432755
-3.0;9.9;0;-0.2;0.1;-0.0;4.8;0.0;0.0;15.0;862.3;332.4;00:01:30;193.9;196;195;71;-19.4662138;-49.1432896
-2.9;10.0;359;0.0;-0.3;-0.1;4.8;0.0;-0.0;15.0;862.3;336.6;00:01:31;188.9;196;195;71;-19.4662555;-49.1433021
-2.8;9.3;0;3.7;-11.3;-0.1;4.9;0.0;-0.0;15.0;862.3;340.7;00:01:32;183.9;196;195;71;-19.4662975;-49.1433145
-0.1;-0.4;0;1.5;-3.2;-0.1;3.8;0.0;-0.0;15.0;862.3;344.7;00:01:33;179.6;196;195;70;-19.4663402;-49.1433271
0.7;0.3;0;-6.4;23.0;-0.1;2.5;0.0;-0.0;15.0;862.3;348.8;00:01:34;176.6;196;195;70;-19.4663705;-49.1433363
15.0;2.0;359;20.1;-3.1;0.2;2.1;0.0;0.0;15.0;862.3;350.8;00:01:35;174.3;140;195;72;-19.4664016;-49.1433457
14.2;12.3;1;-2.5;16.3;-4.6;2.8;0.0;0.0;15.0;862.3;352.8;00:01:36;172.7;140;196;72;-19.4664174;-49.1433491
6.0;6.1;359;-21.4;-17.1;3.1;4.7;0.0;-0.0;15.0;862.3;356.9;00:01:37;170.8;140;197;71;-19.4664387;-49.1433337
6.7;7.2;0;0.5;1.0;-0.3;4.6;0.0;0.0;15.0;862.3;363.0;00:01:38;168.6;140;199;71;-19.4664602;-49.1433110
3.6;4.1;359;-18.5;-22.9;0.9;4.6;0.0;0.0;15.0;862.3;367.1;00:01:39;166.6;140;200;70;-19.4664959;-49.1432735
0.0;0.1;0;0.5;-1.9;0.2;3.5;0.0;0.0;15.0;862.2;371.2;00:01:40;164.9;140;201;70;-19.4665196;-49.1432487
0.0;-0.4;359;16.6;13.3;-0.1;2.3;0.0;0.0;15.0;862.2;373.2;00:01:41;163.7;140;202;70;-19.4665460;-49.1432216
-11.1;6.5;0;-25.6;-0.3;-0.0;2.0;0.0;0.0;15.0;862.3;375.2;00:01:42;162.8;199;203;71;-19.4665672;-49.1431997
-10.7;14.4;359;-1.5;23.2;3.2;2.4;0.0;0.0;15.0;862.3;377.2;00:01:43;160.9;199;203;72;-19.4665820;-49.1431873
-2.9;13.2;0;-4.1;-15.6;-1.6;4.5;0.0;-0.0;15.0;862.3;381.4;00:01:44;157.2;199;203;72;-19.4666010;-49.1431917
-4.1;9.1;359;0.1;0.4;0.1;4.6;0.0;-0.0;15.0;862.3;385.4;00:01:45;152.5;199;203;71;-19.4666262;-49.1432042
-4.0;9.6;359;0.2;0.4;0.1;4.6;0.0;-0.0;15.0;862.3;389.5;00:01:46;148.0;199;203;71;-19.4666652;-49.1432212
-0.6;1.1;0;1.8;-0.5;-0.2;4.0;0.0;-0.0;15.0;862.3;395.7;00:01:47;143.4;199;203;70;-19.4667113;-49.1432419
-3.0;7.0;0;3.3;-3.0;-0.2;3.4;0.0;-0.0;15.0;862.3;397.7;00:01:48;139.9;199;203;71;-19.4667408;-49.1432551
12.7;9.5;0;-6.4;15.5;-1.1;3.3;0.0;-0.0;15.1;862.3;401.8;00:01:49;136.6;174;203;72;-19.4667756;-49.1432706
1.7;13.4;0;1.3;-19.6;-0.2;4.7;0.0;-0.1;15.1;862.4;405.9;00:01:50;133.1;174;204;71;-19.4668051;-49.1432775
1.6;10.2;359;0.2;0.6;0.1;4.8;0.0;-0.1;15.1;862.4;409.9;00:01:51;129.0;174;205;71;-19.4668347;-49.1432731
1.5;10.6;359;-0.3;0.1;0.1;4.8;0.0;-0.1;15.1;862.3;416.0;00:01:52;125.2;174;206;71;-19.4668859;-49.1432651
-0.0;0.9;359;-1.3;-2.8;0.1;4.0;0.0;-0.1;15.1;862.3;420.1;00:01:53;121.5;174;208;70;-19.4669286;-49.1432580
0.8;7.4;359;1.7;-6.4;-0.1;3.1;0.0;-0.0;15.0;862.3;424.1;00:01:54;118.9;174;208;70;-19.4669668;-49.1432514
-15.4;4.3;0;3.6;-1.7;0.1;2.9;0.0;0.0;15.0;862.3;426.1;00:01:55;116.4;207;209;71;-19.4669951;-49.1432468
-8.9;19.2;359;19.3;-14.5;1.7;4.3;0.0;-0.0;15.0;862.3;430.2;00:01:56;113.0;207;209;72;-19.4670212;-49.1432471
-5.3;8.6;359;0.9;1.4;-0.3;4.8;0.0;-0.0;15.0;862.3;434.2;00:01:57;108.3;207;209;71;-19.4670431;-49.1432602
-5.1;9.0;359;0.3;0.4;0.1;4.8;0.0;-0.0;15.0;862.3;438.4;00:01:58;103.6;207;209;71;-19.4670873;-49.1432871
-5.0;9.2;359;-0.2;0.2;0.0;4.8;0.0;-0.0;15.0;862.3;444.6;00:01:59;98.9;207;209;71;-19.4671239;-49.1433096
-4.9;9.3;359;0.0;0.2;-0.1;4.9;0.0;-0.0;15.0;862.3;448.6;00:02:00;94.2;207;209;71;-19.4671534;-49.1433276
-5.1;9.3;359;0.2;0.1;0.1;4.9;0.0;0.0;15.0;862.3;452.7;00:02:01;89.4;209;209;71;-19.4671904;-49.1433500
-5.1;9.3;359;-0.0;0.2;0.0;4.9;0.0;0.0;15.0;862.3;458.8;00:02:02;84.5;209;209;71;-19.4672357;-49.1433772
-5.1;9.3;0;-0.1;0.1;0.0;4.9;0.0;0.0;15.0;862.3;462.9;00:02:03;79.6;209;209;71;-19.4672663;-49.1433955
-2.8;4.2;0;7.6;-27.3;-1.0;4.9;0.0;0.0;15.0;862.3;467.1;00:02:04;74.7;209;209;70;-19.4673126;-49.1434231
-3.1;7.0;359;-21.6;19.6;0.3;3.6;0.0;0.0;15.0;862.3;471.2;00:02:05;70.4;209;209;71;-19.4673432;-49.1434414
8.3;9.1;359;25.1;-1.3;-0.3;3.6;0.0;0.0;15.0;862.3;475.3;00:02:06;66.9;185;209;71;-19.4673818;-49.1434645
-0.6;19.3;0;3.3;-23.6;-0.4;4.5;0.0;0.0;15.0;862.3;479.4;00:02:07;63.4;185;210;72;-19.4674050;-49.1434773
-0.1;10.5;359;-0.5;-0.6;0.0;4.8;0.0;0.0;15.0;862.3;483.5;00:02:08;59.1;185;213;71;-19.4674390;-49.1434823
-0.3;10.5;359;-0.3;0.2;0.0;4.9;0.0;0.0;15.0;862.2;489.6;00:02:09;54.9;185;215;71;-19.4674915;-49.1434847
-0.1;0.8;0;0.1;1.2;-0.2;4.3;0.0;0.0;14.9;862.2;493.6;00:02:10;51.1;185;218;70;-19.4675263;-49.1434858
0.2;2.3;0;0.6;23.8;0.1;3.0;0.0;0.0;14.9;862.2;497.7;00:02:11;48.2;185;221;70;-19.4675694;-49.1434873
-12.8;2.2;0;-25.3;-3.0;-0.1;2.7;0.0;0.1;15.0;862.2;499.7;00:02:12;46.0;220;223;72;-19.4676069;-49.1434886
-14.3;13.8;358;-2.3;23.0;5.0;3.4;0.0;0.1;15.0;862.3;503.8;00:02:13;43.2;220;224;73;-19.4676275;-49.1434899
-6.1;6.3;0;-7.2;6.4;-2.1;4.8;0.0;0.0;15.0;862.3;507.8;00:02:14;38.7;220;224;71;-19.4676541;-49.1435098
-7.1;7.5;359;-0.0;0.2;0.2;4.8;0.0;0.0;15.0;862.3;511.9;00:02:15;33.9;220;224;71;-19.4676848;-49.1435404
-7.1;7.7;359;0.2;0.2;0.0;4.8;0.0;0.0;15.0;862.3;517.9;00:02:16;29.1;220;224;71;-19.4677098;-49.1435659
-7.0;7.8;359;0.1;0.3;-0.0;4.8;0.0;0.0;15.0;862.3;522.0;00:02:17;24.3;220;224;71;-19.4677471;-49.1436042
-7.1;7.8;359;-0.4;-0.1;-0.1;4.9;0.0;0.0;15.0;862.3;526.2;00:02:18;19.5;224;224;71;-19.4677720;-49.1436296
-7.1;7.9;0;0.0;0.1;-0.1;4.9;0.0;0.0;15.0;862.3;532.3;00:02:19;14.6;224;224;71;-19.4678037;-49.1436620
-2.2;2.2;0;18.0;-21.8;-1.2;4.8;0.0;-0.0;15.0;862.3;536.4;00:02:20;9.7;224;223;70;-19.4678419;-49.1437009
0.6;-0.2;0;1.7;-1.0;0.3;3.4;0.0;-0.0;15.0;862.3;540.5;00:02:21;5.6;224;223;70;-19.4678673;-49.1437266
1.4;-1.2;0;0.7;-0.5;-0.2;2.1;0.0;-0.0;15.0;862.3;544.6;00:02:22;2.8;224;223;70;-19.4678937;-49.1437533
1.4;-1.3;0;0.9;0.4;-0.1;1.2;0.0;0.0;15.0;862.3;544.6;00:02:23;1.2;224;224;70;-19.4679140;-49.1437735
1.0;-0.8;0;-1.1;0.3;-0.1;0.6;0.0;0.0;15.0;862.3;546.6;00:02:24;0.3;224;--.--;70;-19.4679219;-49.1437814
0.6;-0.4;0;0.0;0.6;0.0;0.2;0.0;0.0;15.0;862.3;546.6;00:02:25;0.1;224;--.--;70;-19.4679281;-49.1437879
0.5;-0.2;0;0.0;0.0;-0.1;0.1;0.0;0.0;15.0;862.3;546.6;00:02:26;0.3;224;--.--;70;-19.4679302;-49.1437903
0.3;-0.0;0;-0.2;-0.2;0.0;0.0;0.0;0.0;15.0;862.3;546.6;00:02:27;0.3;224;--.--;70;-19.4679309;-49.1437911
0.3;0.1;0;0.0;0.4;-0.0;0.0;0.0;0.0;15.0;862.2;546.6;00:02:28;0.3;224;--.--;70;-19.4679309;-49.1437913
0.3;0.2;0;-0.4;0.3;0.1;0.1;0.0;0.0;15.0;862.2;546.6;00:02:29;0.3;224;--.--;70;-19.4679306;-49.1437911
-0.2;0.3;0;5.6;-2.9;-0.1;0.1;0.0;-1.1;14.9;862.2;546.6;00:02:31;0.3;224;--.--;74;-19.4679304;-49.1437906
0.1;0.2;0;-0.1;-0.5;-0.1;0.1;0.0;-0.9;14.0;861.3;546.6;00:02:31;0.3;224;--.--;72;-19.4679305;-49.1437905
0.1;0.1;0;-0.2;0.3;-0.1;0.0;0.0;-1.0;13.0;860.3;546.6;00:02:32;0.3;224;--.--;72;-19.4679309;-49.1437908
0.1;0.0;0;0.2;-0.2;0.1;0.0;0.0;-1.0;12.0;859.3;546.6;00:02:33;0.3;224;--.--;72;-19.4679311;-49.1437909
0.2;0.0;0;0.4;0.2;-0.0;0.0;0.0;-0.9;11.0;858.3;546.6;00:02:34;0.3;224;--.--;72;-19.4679312;-49.1437911
0.1;-0.0;0;-0.0;-0.1;-0.0;0.0;0.0;-0.9;10.0;857.3;546.6;00:02:35;0.3;224;--.--;72;-19.4679312;-49.1437913
0.3;0.2;0;-0.4;0.2;-0.1;0.0;0.0;-0.9;9.1;856.3;546.6;00:02:36;0.3;224;--.--;72;-19.4679311;-49.1437914
0.2;0.1;0;0.3;0.3;-0.0;0.0;0.0;-0.8;8.2;855.4;546.6;00:02:37;0.3;224;--.--;72;-19.4679309;-49.1437914
0.2;0.2;0;-0.2;-0.1;-0.1;0.0;0.0;-0.8;7.3;854.6;546.6;00:02:38;0.3;224;--.--;72;-19.4679307;-49.1437914
0.1;0.1;0;0.2;0.2;0.1;0.0;0.0;-0.8;6.5;853.8;546.6;00:02:39;0.3;224;--.--;72;-19.4679306;-49.1437912
0.0;0.2;0;0.3;-0.2;-0.1;0.0;0.0;-0.7;5.8;853.0;546.6;00:02:40;0.3;224;--.--;72;-19.4679305;-49.1437910
0.1;0.1;0;-0.1;-0.0;0.0;0.0;0.0;-0.7;5.1;852.3;546.6;00:02:41;0.3;224;--.--;71;-19.4679305;-49.1437909
0.1;0.3;0;0.3;0.6;-0.2;0.0;0.0;-0.7;4.4;851.6;546.6;00:02:42;0.3;224;--.--;71;-19.4679303;-49.1437910
0.0;0.2;0;0.1;-0.0;-0.1;0.0;0.0;-0.7;3.7;851.0;546.6;00:02:43;0.3;224;--.--;71;-19.4679303;-49.1437910
0.1;0.3;0;0.7;0.0;0.1;0.0;0.0;-0.7;3.0;850.3;546.6;00:02:44;0.3;224;--.--;71;-19.4679303;-49.1437910
0.0;0.2;0;0.2;-0.2;0.1;0.0;0.0;-0.8;2.3;849.6;546.6;00:02:45;0.3;224;--.--;71;-19.4679302;-49.1437911
-0.1;0.2;0;0.1;-0.3;-0.1;0.0;0.0;-0.8;1.6;848.9;546.6;00:02:46;0.3;224;--.--;71;-19.4679302;-49.1437911
-0.1;0.3;0;0.2;-0.2;-0.1;0.0;0.0;-0.8;0.9;848.2;546.6;00:02:47;0.3;224;--.--;71;-19.4679301;-49.1437909
-0.1;0.2;0;0.1;-0.1;-0.1;0.0;0.0;-0.8;0.3;847.5;546.6;00:02:48;0.3;224;--.--;71;-19.4679301;-49.1437908
-0.1;0.2;0;-0.2;-0.2;-0.0;0.0;0.0;-0.7;-0.6;846.7;546.6;00:02:49;0.3;224;--.--;67;-19.4679301;-49.1437909
-0.0;0.3;0;-0.1;0.1;0.1;0.0;0.0;-1.0;-0.7;846.6;546.6;00:02:50;0.3;224;--.--;70;-19.4679302;-49.1437908
-0.0;0.2;0;-0.2;-0.3;-0.0;0.0;0.0;-1.0;-0.9;846.4;546.6;00:02:51;0.3;224;--.--;70;-19.4679303;-49.1437907
-0.2;0.2;0;0.0;0.0;0.1;0.0;0.0;-1.0;-1.2;846.1;546.6;00:02:52;0.3;224;--.--;70;-19.4679305;-49.1437906
-0.2;0.2;0;0.1;0.0;0.0;0.0;0.0;-0.5;-1.3;846.0;546.6;00:02:53;0.3;224;--.--;49;-19.4679309;-49.1437903
-0.2;0.3;0;0.1;-0.1;0.1;0.0;0.0;-0.3;-1.3;846.0;546.6;00:02:54;0.3;224;--.--;36;-19.4679309;-49.1437903
-0.2;0.3;0;0.1;-0.3;-0.0;0.0;0.0;-0.2;-1.2;846.1;546.6;00:02:55;0.3;224;--.--;12;-19.4679309;-49.1437903
-0.2;0.3;0;0.1;0.2;0.0;0.0;0.0;-0.1;-1.0;846.3;546.6;00:02:56;0.2;224;--.--;0;-19.4679309;-49.1437903
-0.2;0.3;0;-0.1;0.3;0.1;0.0;0.0;-0.0;-0.9;846.4;546.6;00:02:57;0.3;224;--.--;0;-19.4679309;-49.1437903
0.0;0.3;0;0.0;0.1;0.0;0.0;0.0;0.0;0.0;847.4;0.0;00:00:00;0.0;--.--;--.--;13;-19.4679309;-49.1437903
0.0;0.3;0;0.2;0.0;-0.1;0.0;0.0;0.0;-0.0;847.4;0.0;00:00:01;0.0;--.--;--.--;47;-19.4679309;-49.1437903
0.0;0.3;0;-0.0;0.0;0.1;0.0;0.0;0.0;-0.0;847.4;0.0;00:00:02;0.0;--.--;--.--;66;-19.4679309;-49.1437903
-0.0;0.5;0;-0.1;0.7;0.1;0.1;0.0;0.6;0.0;847.4;0.0;00:00:03;0.0;--.--;--.--;74;-19.4679309;-49.1437903
-0.1;0.6;0;-0.2;0.3;-0.1;0.0;0.0;1.2;0.6;847.9;0.0;00:00:04;0.0;--.--;--.--;72;-19.4679305;-49.1437903
-0.1;0.5;0;0.3;-0.3;1.7;0.0;0.0;1.3;1.7;849.1;0.0;00:00:05;0.0;--.--;--.--;73;-19.4679303;-49.1437901
-0.1;0.3;1;0.1;0.0;0.4;0.0;0.0;1.4;3.0;850.3;0.0;00:00:06;0.0;--.--;--.--;73;-19.4679305;-49.1437901
-0.1;0.3;1;0.1;0.1;0.3;0.0;0.0;1.4;4.4;851.7;0.0;00:00:07;0.0;--.--;--.--;73;-19.4679307;-49.1437901
0.1;0.4;1;-0.1;0.2;0.1;0.0;0.0;1.5;5.8;853.2;0.0;00:00:08;0.0;--.--;--.--;73;-19.4679309;-49.1437902
0.0;0.3;1;-0.3;0.2;-0.0;0.0;0.0;1.5;7.3;854.7;0.0;00:00:09;0.0;--.--;--.--;73;-19.4679310;-49.1437902
-0.2;0.3;1;-0.0;-0.2;-0.1;0.0;0.0;1.5;8.8;856.2;0.0;00:00:10;0.0;--.--;--.--;73;-19.4679311;-49.1437902
-0.0;0.3;1;-0.1;-0.0;-0.0;0.0;0.0;1.9;10.4;857.7;0.0;00:00:11;0.0;--.--;--.--;70;-19.4679312;-49.1437900
-0.1;0.3;1;-0.0;0.1;-0.0;0.0;0.0;1.0;12.2;859.6;0.0;00:00:12;0.0;--.--;--.--;70;-19.4679313;-49.1437901
-0.1;0.3;1;0.2;0.1;0.0;0.0;0.0;0.7;13.3;860.7;0.0;00:00:13;0.0;--.--;--.--;70;-19.4679312;-49.1437903
0.0;0.3;1;-0.2;0.3;-0.1;0.0;0.0;0.4;14.0;861.4;0.0;00:00:14;0.1;--.--;--.--;70;-19.4679312;-49.1437904
2.3;-18.4;359;0.7;-10.1;1.0;1.3;0.0;0.2;14.5;861.8;0.0;00:00:15;0.3;--.--;--.--;72;-19.4679311;-49.1437906
2.9;-20.1;0;0.9;9.3;-0.1;3.8;0.0;0.0;14.7;862.1;2.1;00:00:16;3.0;--.--;189;72;-19.4679196;-49.1437883
1.2;-7.2;0;3.4;-9.2;-0.7;4.4;0.0;-0.1;14.7;862.1;6.2;00:00:17;7.3;--.--;189;71;-19.4678945;-49.1437845
1.6;-9.2;359;-0.1;-0.6;0.1;4.4;0.0;-0.1;14.8;862.1;10.3;00:00:18;11.7;--.--;189;71;-19.4678471;-49.1437762
1.6;-9.5;359;-0.3;-0.7;0.1;4.5;0.0;-0.1;14.8;862.1;14.3;00:00:19;16.0;--.--;189;71;-19.4678161;-49.1437703
1.6;-9.6;0;0.3;-0.0;-0.1;4.6;0.0;-0.1;14.8;862.1;18.5;00:00:20;20.5;--.--;189;71;-19.4677686;-49.1437615
1.6;-9.7;359;-0.1;0.2;-0.0;4.6;0.0;-0.1;14.8;862.1;24.6;00:00:21;25.1;--.--;190;71;-19.4677363;-49.1437556
1.6;-9.7;359;-0.2;-0.1;0.1;4.7;0.0;-0.1;14.7;862.1;28.7;00:00:22;29.8;--.--;189;71;-19.4676871;-49.1437467
1.7;-9.9;359;-0.5;-0.4;-0.0;4.7;0.0;-0.1;14.8;862.1;32.9;00:00:23;34.5;--.--;189;71;-19.4676536;-49.1437407
1.7;-10.0;359;0.3;-0.0;-0.0;4.8;0.0;-0.1;14.8;862.1;39.1;00:00:24;39.3;--.--;189;71;-19.4676032;-49.1437318
1.7;-10.0;359;0.0;-0.1;0.2;4.8;0.0;-0.1;14.8;862.1;43.1;00:00:25;44.0;--.--;189;71;-19.4675689;-49.1437259
1.9;-10.0;0;-0.1;-0.3;-0.0;4.8;0.0;-0.1;14.8;862.2;47.3;00:00:26;48.9;--.--;189;71;-19.4675171;-49.1437172
1.9;-10.0;359;-0.0;0.5;0.0;4.9;0.0;-0.1;14.8;862.2;53.5;00:00:27;53.9;--.--;189;71;-19.4674825;-49.1437114
1.9;-10.0;359;-0.3;0.1;0.1;4.9;0.0;-0.1;14.8;862.2;57.7;00:00:28;58.8;--.--;189;71;-19.4674385;-49.1437039
1.9;-10.0;359;0.3;0.1;0.1;4.9;0.0;-0.1;14.8;862.2;61.8;00:00:29;63.7;--.--;189;71;-19.4673860;-49.1436949
2.0;-10.0;359;-0.3;0.2;0.0;4.9;0.0;-0.1;14.8;862.2;68.0;00:00:30;68.7;--.--;189;71;-19.4673508;-49.1436887
1.8;-10.1;359;0.2;-0.3;0.0;4.9;0.0;-0.0;14.8;862.1;72.1;00:00:31;73.6;--.--;189;71;-19.4672980;-49.1436794
1.9;-10.1;359;0.1;0.2;-0.1;4.9;0.0;-0.0;14.8;862.2;78.3;00:00:32;78.6;--.--;189;71;-19.4672629;-49.1436732
1.8;-10.1;359;-0.3;-0.2;-0.0;4.9;0.0;-0.0;14.8;862.1;82.4;00:00:33;83.5;--.--;189;71;-19.4672188;-49.1436653
1.7;-10.2;359;0.1;-0.2;0.0;4.9;0.0;-0.0;14.8;862.2;86.6;00:00:34;88.5;--.--;189;71;-19.4671663;-49.1436560
1.8;-10.1;359;-0.1;0.2;-0.2;5.0;0.0;-0.0;14.8;862.2;92.7;00:00:35;93.4;--.--;189;71;-19.4671312;-49.1436499
1.8;-10.2;359;-0.2;-0.2;0.1;5.0;0.0;-0.0;14.8;862.2;96.9;00:00:36;98.4;--.--;189;71;-19.4670780;-49.1436407
1.9;-10.2;359;0.0;0.1;0.0;5.0;0.0;0.0;14.8;862.1;103.2;00:00:37;103.3;--.--;189;71;-19.4670338;-49.1436330
1.8;-10.2;359;-0.2;0.0;-0.3;5.0;0.0;0.0;14.8;862.2;107.4;00:00:38;108.3;--.--;189;71;-19.4669988;-49.1436269
1.8;-10.1;0;0.2;-0.1;0.1;5.0;0.0;0.0;14.8;862.2;111.5;00:00:39;113.3;--.--;189;71;-19.4669456;-49.1436176
1.8;-10.1;359;0.1;0.0;0.0;5.0;0.0;0.0;14.8;862.1;117.7;00:00:40;118.2;--.--;189;71;-19.4669103;-49.1436115
1.8;-10.1;359;-0.2;-0.1;-0.0;5.0;0.0;0.1;14.8;862.1;121.9;00:00:41;123.3;--.--;189;71;-19.4668572;-49.1436021
1.8;-10.2;0;-0.0;0.1;0.0;5.0;0.0;0.1;14.8;862.1;128.2;00:00:42;128.1;--.--;189;71;-19.4668131;-49.1435942
1.8;-10.2;0;-0.4;-0.1;0.1;5.0;0.0;0.1;14.8;862.1;132.3;00:00:43;133.1;--.--;189;71;-19.4667690;-49.1435865
1.8;-10.2;359;-0.4;-0.4;0.2;5.0;0.0;0.1;14.8;862.1;136.5;00:00:44;138.1;--.--;189;71;-19.4667339;-49.1435802
1.7;-10.2;0;0.2;-0.0;0.0;5.0;0.0;0.1;14.8;862.1;142.7;00:00:45;143.1;--.--;189;71;-19.4666895;-49.1435724
1.9;-10.2;0;-0.2;-0.3;-0.1;5.0;0.0;0.1;14.8;862.2;146.9;00:00:46;148.1;--.--;189;71;-19.4666454;-49.1435647
1.9;-10.2;359;-0.2;-0.1;-0.1;5.0;0.0;0.1;14.8;862.2;153.1;00:00:47;153.1;--.--;189;71;-19.4666009;-49.1435569
1.7;-10.2;359;-0.3;-0.0;0.1;5.0;0.0;0.0;14.8;862.2;157.1;00:00:48;158.1;--.--;189;71;-19.4665476;-49.1435473
1.7;-10.2;359;0.5;0.0;0.2;5.0;0.0;0.0;14.8;862.2;161.1;00:00:49;163.1;--.--;189;71;-19.4665125;-49.1435411
1.8;-10.2;0;0.2;-0.2;-0.1;5.0;0.0;0.0;14.9;862.2;167.4;00:00:50;168.1;--.--;189;71;-19.4664588;-49.1435316
1.8;-10.2;359;-0.7;0.0;0.1;5.0;0.0;0.0;14.9;862.2;171.4;00:00:51;173.1;--.--;189;71;-19.4664231;-49.1435253
1.7;-10.1;359;0.5;-0.0;-0.0;5.0;0.0;0.0;14.9;862.3;177.6;00:00:52;178.1;--.--;189;71;-19.4663698;-49.1435160
2.0;-10.2;359;-0.2;0.2;-0.0;5.0;0.0;-0.0;14.9;862.3;181.7;00:00:53;183.1;--.--;189;71;-19.4663341;-49.1435098
1.7;-10.1;0;0.1;-0.1;0.0;5.0;0.0;-0.0;14.9;862.3;187.8;00:00:54;188.1;--.--;189;71;-19.4662807;-49.1435005
1.8;-10.1;359;0.3;-0.2;-0.1;5.0;0.0;-0.0;14.9;862.3;191.9;00:00:55;193.1;--.--;189;71;-19.4662454;-49.1434942
1.8;-10.2;0;-0.1;-0.2;0.1;5.0;0.0;-0.0;15.0;862.3;198.2;00:00:56;198.2;--.--;189;71;-19.4662008;-49.1434864
1.9;-10.2;359;-0.1;0.0;-0.1;5.0;0.0;-0.0;15.0;862.3;202.3;00:00:57;203.2;--.--;189;71;-19.4661563;-49.1434784
1.8;-10.2;359;0.2;-0.1;0.1;5.0;0.0;-0.0;15.0;862.3;206.4;00:00:58;208.2;--.--;189;71;-19.4661123;-49.1434707
1.8;-10.2;359;0.2;0.1;-0.1;5.0;0.0;-0.0;15.0;862.3;212.6;00:00:59;213.1;--.--;189;71;-19.4660587;-49.1434613
1.8;-10.2;359;-0.1;0.2;0.1;5.0;0.0;-0.0;15.0;862.4;216.8;00:01:00;218.1;--.--;189;71;-19.4660234;-49.1434550
1.8;-10.2;359;-0.2;0.2;0.0;5.0;0.0;-0.0;15.0;862.3;223.0;00:01:01;223.0;--.--;189;71;-19.4659704;-49.1434457
1.7;-10.3;359;0.2;0.0;0.1;5.0;0.0;-0.0;15.0;862.3;227.2;00:01:02;228.0;--.--;189;71;-19.4659350;-49.1434395
1.7;-10.2;359;0.0;0.3;0.0;5.0;0.0;-0.0;15.0;862.3;231.3;00:01:03;233.0;--.--;189;71;-19.4658816;-49.1434302
1.7;-10.2;359;0.3;0.2;0.0;5.0;0.0;-0.0;15.0;862.3;237.5;00:01:04;238.0;--.--;189;71;-19.4658461;-49.1434241
2.0;-10.2;359;0.1;-0.1;0.0;5.0;0.0;-0.0;15.0;862.4;241.6;00:01:05;243.0;--.--;189;71;-19.4658016;-49.1434166
1.4;-9.5;0;-3.3;13.5;-0.0;5.0;0.0;0.0;15.0;862.4;247.7;00:01:06;248.0;--.--;189;71;-19.4657484;-49.1434073
-0.7;2.9;0;-9.6;2.9;-0.0;3.8;0.0;-0.0;15.0;862.4;251.8;00:01:07;252.4;--.--;189;71;-19.4657054;-49.1433997
-0.5;2.6;0;5.4;-0.4;0.1;2.2;0.0;0.0;15.0;862.3;253.9;00:01:08;255.1;--.--;189;71;-19.4656801;-49.1433945
-1.8;16.4;359;-0.3;15.2;1.0;0.9;0.0;0.1;15.0;862.3;255.9;00:01:09;256.6;189;189;72;-19.4656576;-49.1433905
-2.5;14.3;0;-0.5;0.8;-0.0;1.7;0.0;0.0;15.0;862.4;255.9;00:01:10;255.7;189;189;72;-19.4656559;-49.1433900
-3.2;17.8;359;-1.1;-10.9;0.0;3.5;0.0;0.0;15.0;862.4;257.9;00:01:11;252.8;189;189;72;-19.4656694;-49.1433917
-1.1;7.1;0;-2.1;10.1;-0.6;4.2;0.0;0.0;15.0;862.3;262.0;00:01:12;248.8;189;189;71;-19.4657080;-49.1433976
-1.8;9.5;359;-0.5;0.8;0.2;4.1;0.0;0.0;15.0;862.3;266.0;00:01:13;244.7;189;189;71;-19.4657446;-49.1434048
-1.1;3.7;0;2.2;-2.7;-0.1;3.9;0.0;0.0;15.0;862.3;270.1;00:01:14;240.7;189;189;70;-19.4657806;-49.1434118
-0.2;0.5;359;1.0;-2.1;0.0;3.0;0.0;0.0;15.0;862.3;274.2;00:01:15;237.4;189;189;70;-19.4658074;-49.1434171
-1.2;5.4;0;-4.9;13.6;0.2;2.1;0.0;0.0;15.0;862.3;276.2;00:01:16;235.0;189;189;70;-19.4658381;-49.1434232
15.4;0.0;359;19.4;-5.0;0.8;1.9;0.0;0.0;15.0;862.4;278.2;00:01:17;233.0;126;189;72;-19.4658532;-49.1434262
18.3;6.6;1;4.4;17.3;-4.4;2.4;0.0;0.1;15.0;862.4;280.2;00:01:18;231.8;126;190;72;-19.4658722;-49.1434203
8.1;6.9;359;-19.8;-21.2;2.5;4.5;0.0;-0.0;15.0;862.4;284.3;00:01:19;230.5;126;191;71;-19.4658850;-49.1433957
8.1;5.2;0;1.1;1.1;-0.0;4.5;0.0;-0.0;15.0;862.4;288.4;00:01:20;228.9;126;192;71;-19.4659023;-49.1433663
7.9;5.3;359;-9.5;-7.8;0.1;4.5;0.0;-0.0;15.0;862.4;292.5;00:01:21;227.4;126;193;71;-19.4659283;-49.1433226
0.4;0.2;359;-2.0;-1.1;0.1;3.7;0.0;-0.0;15.0;862.4;296.6;00:01:22;226.0;126;194;70;-19.4659456;-49.1432935
-0.9;-0.3;0;-1.0;0.5;0.1;2.5;0.0;-0.0;15.0;862.4;300.6;00:01:23;225.1;126;195;70;-19.4659665;-49.1432589
-4.2;8.2;359;-26.9;8.4;0.4;2.0;0.0;-0.0;15.0;862.4;302.6;00:01:24;224.5;191;195;71;-19.4659757;-49.1432433
-8.1;10.7;359;-5.7;27.4;1.1;1.9;0.0;-0.0;15.0;862.4;302.6;00:01:25;223.0;191;195;71;-19.4659901;-49.1432276
-1.8;17.6;0;4.0;-17.2;-0.8;4.0;0.0;-0.0;15.1;862.4;306.7;00:01:26;219.8;191;195;72;-19.4660055;-49.1432300
-2.8;9.4;359;0.2;1.2;-0.0;4.5;0.0;-0.0;15.0;862.4;310.7;00:01:27;215.3;191;195;71;-19.4660485;-49.1432432
-2.8;10.1;359;0.2;0.5;-0.1;4.5;0.0;-0.0;15.0;862.4;316.8;00:01:28;210.7;191;195;71;-19.4660803;-49.1432523
-2.6;10.3;359;0.0;0.3;-0.1;4.6;0.0;-0.0;15.0;862.4;320.9;00:01:29;206.0;191;195;71;-19.4661206;-49.1432639
-2.6;10.4;359;-0.1;0.2;0.1;4.7;0.0;-0.0;15.0;862.4;325.1;00:01:30;201.3;191;195;71;-19.4661611;-49.1432756
-2.8;10.4;359;-0.3;-0.2;0.1;4.7;0.0;-0.0;15.0;862.4;329.1;00:01:31;196.5;195;195;71;-19.4662107;-49.1432898
-2.8;10.4;359;-0.4;-0.0;-0.1;4.8;0.0;0.0;15.0;862.4;335.2;00:01:32;191.7;195;195;71;-19.4662439;-49.1432998
-2.9;10.3;359;0.0;0.1;0.0;4.8;0.0;0.0;15.0;862.4;339.3;00:01:33;186.9;195;195;71;-19.4662944;-49.1433147
-1.2;0.9;0;2.8;-2.0;0.0;4.6;0.0;0.0;15.0;862.3;345.5;00:01:34;182.0;195;195;70;-19.4663277;-49.1433246
0.5;-0.8;0;0.6;-1.5;0.0;3.3;0.0;0.0;14.9;862.3;347.5;00:01:35;178.3;195;195;70;-19.4663671;-49.1433364
-0.4;4.5;0;18.4;-9.3;0.2;2.4;0.0;0.1;14.9;862.3;351.6;00:01:36;175.7;139;195;70;-19.4663992;-49.1433460
10.9;1.2;359;-10.3;1.3;0.6;2.2;0.0;0.1;14.9;862.3;353.6;00:01:37;173.7;139;196;71;-19.4664191;-49.1433496
14.2;17.7;0;4.1;-14.3;-1.5;3.7;0.0;0.1;15.0;862.3;355.7;00:01:38;172.2;139;196;73;-19.4664366;-49.1433369
6.4;7.0;359;1.8;2.5;0.4;4.6;0.0;0.0;15.0;862.3;359.8;00:01:39;170.0;139;198;71;-19.4664631;-49.1433090
6.9;7.5;0;0.4;0.3;-0.0;4.6;0.0;0.0;15.0;862.3;365.8;00:01:40;168.0;139;199;71;-19.4664926;-49.1432779
0.3;1.1;359;0.4;2.8;0.2;4.3;0.0;0.0;15.0;862.3;370.0;00:01:41;166.1;139;200;70;-19.4665159;-49.1432534
-0.4;0.1;0;0.0;-1.4;-0.1;3.0;0.0;0.0;15.0;862.3;372.0;00:01:42;164.6;139;202;70;-19.4665427;-49.1432252
3.5;4.3;0;-4.2;-5.7;-0.0;2.2;0.0;0.0;15.0;862.4;376.0;00:01:43;163.7;199;202;70;-19.4665650;-49.1432021
-12.9;7.1;0;18.1;-1.5;0.0;1.9;0.0;0.0;15.0;862.4;378.1;00:01:44;162.5;199;203;71;-19.4665796;-49.1431886
-10.4;20.3;359;0.2;14.9;3.2;3.2;0.0;0.0;15.0;862.4;380.1;00:01:45;160.1;199;203;74;-19.4665937;-49.1431892
-3.8;7.6;0;-2.9;-7.7;-0.7;4.7;0.0;-0.1;15.0;862.4;384.3;00:01:46;155.8;199;203;71;-19.4666286;-49.1432061
-4.2;9.4;359;0.1;0.8;-0.2;4.6;0.0;-0.0;15.0;862.4;388.4;00:01:47;151.3;199;203;71;-19.4666596;-49.1432197
-3.3;7.7;0;5.4;-18.9;-0.8;4.7;0.0;-0.0;15.0;862.4;392.4;00:01:48;146.6;199;203;70;-19.4667057;-49.1432401
-0.3;0.9;0;1.1;8.7;0.0;3.6;0.0;-0.0;15.0;862.4;396.5;00:01:49;142.5;199;203;70;-19.4667357;-49.1432534
-0.9;8.2;0;22.0;6.9;0.4;3.4;0.0;-0.0;15.0;862.4;400.6;00:01:50;139.1;174;203;71;-19.4667712;-49.1432690
8.3;16.3;0;-20.4;25.3;-3.0;3.6;0.0;0.0;15.0;862.4;404.6;00:01:51;135.9;174;203;72;-19.4667944;-49.1432773
1.5;8.6;359;2.9;-4.0;0.0;4.8;0.0;-0.1;15.0;862.4;408.7;00:01:52;132.1;174;204;71;-19.4668368;-49.1432727
1.5;10.2;359;-0.0;0.6;0.1;4.8;0.0;-0.0;15.0;862.4;412.8;00:01:53;128.1;174;205;71;-19.4668710;-49.1432674
0.9;7.4;359;-1.9;-22.1;0.5;4.8;0.0;-0.0;15.0;862.4;418.8;00:01:54;124.3;174;207;71;-19.4669140;-49.1432604
-0.4;-0.5;0;-0.7;-2.3;-0.0;3.5;0.0;-0.0;15.0;862.4;422.9;00:01:55;120.8;174;208;70;-19.4669622;-49.1432522
-0.3;5.5;359;-16.1;-2.6;-0.3;3.0;0.0;-0.0;15.0;862.4;424.9;00:01:56;118.3;207;209;71;-19.4669863;-49.1432480
-13.1;7.1;359;-3.6;25.5;1.9;3.0;0.0;-0.0;15.1;862.4;429.0;00:01:57;115.7;207;209;72;-19.4670177;-49.1432458
-4.0;12.5;0;3.8;-19.9;-1.3;4.8;0.0;-0.1;15.1;862.5;433.1;00:01:58;111.8;207;209;71;-19.4670389;-49.1432572
-5.3;8.6;359;-0.1;0.8;0.1;4.8;0.0;-0.1;15.1;862.4;437.2;00:01:59;107.2;207;209;71;-19.4670825;-49.1432842
-5.2;9.0;359;0.1;0.1;-0.1;4.8;0.0;-0.1;15.1;862.4;441.3;00:02:00;102.4;207;209;71;-19.4671125;-49.1433024
-5.2;9.0;359;0.0;0.1;-0.1;4.8;0.0;-0.1;15.1;862.4;447.3;00:02:01;97.6;207;209;71;-19.4671499;-49.1433250
-6.0;8.7;359;-0.8;-1.5;-0.2;4.9;0.0;-0.1;15.1;862.4;451.4;00:02:02;92.8;210;209;71;-19.4671950;-49.1433521
-5.3;9.0;0;-0.6;-0.2;-0.0;4.9;0.0;-0.1;15.1;862.4;455.5;00:02:03;88.1;210;209;71;-19.4672254;-49.1433703
-5.2;9.1;359;0.1;0.1;0.0;4.9;0.0;-0.0;15.0;862.4;461.6;00:02:04;83.0;210;209;71;-19.4672711;-49.1433977
-5.3;9.0;0;-0.0;-0.0;0.3;4.9;0.0;-0.0;15.0;862.4;465.7;00:02:05;78.1;210;209;71;-19.4673099;-49.1434210
-0.9;0.3;0;4.7;2.2;-0.4;4.7;0.0;-0.0;15.0;862.4;469.9;00:02:06;73.4;210;209;70;-19.4673406;-49.1434394
-3.8;6.3;0;4.1;-4.6;-0.0;3.6;0.0;-0.0;15.0;862.4;473.9;00:02:07;69.6;210;209;70;-19.4673740;-49.1434598
10.0;10.3;0;-21.0;18.5;-1.1;3.5;0.0;-0.0;15.0;862.4;478.0;00:02:08;65.9;185;210;71;-19.4674087;-49.1434790
-0.2;12.1;0;0.4;-22.7;-0.7;4.7;0.0;-0.1;15.1;862.4;482.1;00:02:09;62.2;185;211;72;-19.4674355;-49.1434828
-0.2;10.3;359;-0.2;0.4;0.1;4.8;0.0;-0.0;15.0;862.4;486.2;00:02:10;58.0;185;213;71;-19.4674879;-49.1434851
-0.4;10.3;359;0.2;-1.2;0.1;4.9;0.0;-0.0;15.0;862.4;492.3;00:02:11;53.9;185;216;71;-19.4674879;-49.1434851
-0.1;-0.3;0;0.3;-3.5;0.0;4.1;0.0;-0.0;15.0;862.4;496.4;00:02:12;50.3;185;219;70;-19.4675321;-49.1434866
-0.3;6.2;0;-1.3;-1.8;-0.1;2.9;0.0;-0.0;15.0;862.4;500.5;00:02:13;47.8;185;221;70;-19.4675665;-49.1434877
-15.8;0.9;0;10.8;-3.9;-0.3;2.7;0.0;0.0;15.0;862.4;502.5;00:02:14;45.5;220;223;71;-19.4676049;-49.1434889
-15.7;17.8;359;-1.1;-7.8;2.9;3.8;0.0;0.0;15.0;862.4;506.5;00:02:15;42.4;220;224;74;-19.4676303;-49.1434908
-7.5;7.4;359;0.3;1.3;-0.3;4.7;0.0;-0.0;15.0;862.4;510.6;00:02:16;37.7;220;224;71;-19.4676474;-49.1435026
-7.4;7.4;359;0.2;0.5;0.3;4.8;0.0;-0.0;15.0;862.4;514.6;00:02:17;33.0;220;224;71;-19.4676762;-49.1435312
-7.3;7.6;359;-0.2;-0.2;0.0;4.8;0.0;-0.0;15.0;862.4;520.7;00:02:18;28.3;220;224;71;-19.4677134;-49.1435691
-7.3;7.6;359;-0.1;0.1;0.0;4.8;0.0;-0.0;15.0;862.4;524.7;00:02:19;23.4;220;224;71;-19.4677383;-49.1435945
-7.4;7.7;359;0.1;0.4;0.1;4.9;0.0;0.0;15.0;862.4;528.8;00:02:20;18.7;224;224;71;-19.4677761;-49.1436329
-7.4;7.8;359;-0.0;0.0;-0.2;4.9;0.0;0.0;15.0;862.4;534.9;00:02:21;13.7;224;224;71;-19.4678079;-49.1436650
-0.7;0.5;0;2.2;0.7;-0.6;4.5;0.0;0.0;15.0;862.4;539.0;00:02:22;8.9;224;224;70;-19.4678338;-49.1436912
0.7;-1.0;0;0.8;-1.3;0.1;3.1;0.0;0.0;15.0;862.4;543.1;00:02:23;5.2;224;224;71;-19.4678721;-49.1437298
1.5;-1.4;0;0.1;0.0;0.0;1.9;0.0;0.0;15.0;862.3;545.1;00:02:24;2.6;224;225;70;-19.4678975;-49.1437553
1.1;-1.2;0;-0.0;0.9;-0.2;1.0;0.0;0.0;15.0;862.3;547.1;00:02:25;1.2;224;228;70;-19.4679142;-49.1437721
0.7;-0.8;0;0.1;-0.0;0.1;0.5;0.0;0.0;15.0;862.3;547.1;00:02:26;0.5;224;--.--;70;-19.4679223;-49.1437803
0.5;-0.3;0;-0.3;0.2;0.0;0.2;0.0;0.1;15.0;862.3;547.1;00:02:27;0.1;224;--.--;70;-19.4679278;-49.1437862
0.2;-0.1;0;-0.8;-0.3;0.1;0.1;0.0;0.0;14.9;862.3;547.1;00:02:28;0.0;224;--.--;70;-19.4679303;-49.1437891
-0.1;0.0;0;-0.2;-0.1;0.0;0.0;0.0;0.1;14.9;862.3;547.1;00:02:29;0.1;224;--.--;70;-19.4679313;-49.1437903
-0.8;1.1;0;-0.2;0.7;0.2;0.0;0.0;-0.7;14.9;862.3;547.1;00:02:30;0.1;224;--.--;61;-19.4679314;-49.1437904
-0.2;0.5;0;-0.8;1.0;0.1;0.0;0.0;-0.9;14.7;862.0;547.1;00:02:31;0.1;224;--.--;71;-19.4679314;-49.1437904
-0.0;0.2;0;-0.2;-0.1;-0.1;0.0;0.0;-1.0;13.7;861.1;549.1;00:02:32;0.2;224;--.--;72;-19.4679318;-49.1437910
-0.1;0.2;0;-0.1;0.3;-0.0;0.0;0.0;-1.0;12.7;860.1;549.1;00:02:33;0.2;224;--.--;72;-19.4679321;-49.1437914
0.0;0.2;0;0.3;0.0;-0.2;0.0;0.0;-1.0;11.7;859.1;549.1;00:02:34;0.2;224;--.--;72;-19.4679322;-49.1437915
0.0;0.1;0;0.1;0.2;-0.2;0.0;0.0;-1.0;10.8;858.1;549.1;00:02:35;0.2;224;--.--;72;-19.4679320;-49.1437916
-0.2;0.4;0;-0.2;0.2;-0.0;0.1;0.0;-0.9;9.7;857.1;549.1;00:02:36;0.1;224;--.--;72;-19.4679319;-49.1437914
-0.1;0.4;0;0.4;0.6;-0.0;0.0;0.0;-0.9;8.8;856.2;549.1;00:02:37;0.1;224;--.--;72;-19.4679315;-49.1437912
-0.2;0.6;0;0.4;0.0;0.1;0.0;0.0;-0.8;7.9;855.3;549.1;00:02:38;0.1;224;--.--;72;-19.4679312;-49.1437908
-0.2;0.4;0;-0.2;-0.2;-0.0;0.0;0.0;-0.8;7.1;854.4;549.1;00:02:39;0.1;224;--.--;72;-19.4679311;-49.1437904
-0.3;0.3;0;-0.3;0.1;0.0;0.0;0.0;-0.7;6.3;853.6;549.1;00:02:40;0.1;224;--.--;72;-19.4679312;-49.1437902
-0.3;0.3;0;0.0;0.1;0.2;0.0;0.0;-0.7;5.5;852.9;549.1;00:02:41;0.1;224;--.--;72;-19.4679313;-49.1437899
-0.1;0.3;0;0.3;0.0;-0.0;0.0;0.0;-0.7;4.8;852.1;549.1;00:02:42;0.1;224;--.--;71;-19.4679312;-49.1437897
-0.1;0.4;0;-0.2;0.1;-0.0;0.0;0.0;-0.7;4.1;851.5;549.1;00:02:43;0.0;224;--.--;71;-19.4679311;-49.1437898
-0.2;0.5;0;-0.3;-0.0;0.1;0.0;0.0;-0.7;3.4;850.8;549.1;00:02:44;0.0;224;--.--;71;-19.4679309;-49.1437898
-0.1;0.3;0;0.1;-0.3;-0.1;0.1;0.0;-0.7;2.7;850.1;549.1;00:02:45;0.0;224;--.--;71;-19.4679308;-49.1437897
-0.1;0.3;0;-0.1;-0.1;0.2;0.1;0.0;-0.7;2.0;849.4;549.1;00:02:46;0.1;224;--.--;71;-19.4679310;-49.1437896
-0.0;0.3;0;0.4;0.1;0.1;0.1;0.0;-0.7;1.3;848.7;549.1;00:02:47;0.1;224;--.--;71;-19.4679312;-49.1437896
-0.1;0.3;0;-0.5;-0.2;0.1;0.0;0.0;-0.7;0.6;848.0;549.1;00:02:48;0.1;224;--.--;71;-19.4679314;-49.1437897
-0.1;0.1;0;1.1;0.8;-0.2;0.0;0.0;-0.7;-0.1;847.3;549.1;00:02:49;0.1;224;--.--;72;-19.4679315;-49.1437897
-0.1;0.3;0;0.1;0.4;0.0;0.0;0.0;-1.0;-0.6;846.7;549.1;00:02:50;0.1;224;--.--;70;-19.4679314;-49.1437897
0.1;0.4;0;0.2;-0.1;0.1;0.0;0.0;-1.0;-0.9;846.4;549.1;00:02:51;0.0;224;--.--;70;-19.4679311;-49.1437899
0.1;0.4;0;-0.1;0.1;0.0;0.1;0.0;-0.6;-1.3;846.1;549.1;00:02:52;0.0;224;--.--;53;-19.4679306;-49.1437904
0.1;0.4;0;-0.1;-0.1;-0.0;0.1;0.0;-0.5;-1.3;846.1;549.1;00:02:53;0.0;224;--.--;45;-19.4679307;-49.1437905
0.1;0.3;0;-0.0;-0.0;-0.1;0.1;0.0;-0.3;-1.3;846.1;549.1;00:02:54;0.0;224;--.--;33;-19.4679306;-49.1437904
0.1;0.2;0;0.0;-0.1;0.0;0.1;0.0;-0.2;-1.1;846.2;549.1;00:02:55;0.0;224;--.--;12;-19.4679306;-49.1437905
0.0;0.2;0;-0.1;-0.1;-0.0;0.0;0.0;-0.1;-1.0;846.4;549.1;00:02:56;0.0;224;--.--;0;-19.4679306;-49.1437905
0.0;0.2;0;0.0;0.2;-0.0;0.0;0.0;0.0;-0.8;846.5;549.1;00:02:57;0.0;9;--.--;0;-19.4679306;-49.1437904
-0.0;0.2;0;0.0;-0.0;0.0;0.0;0.0;0.1;-0.7;846.7;549.1;00:02:57;0.0;9;--.--;0;-19.4679306;-49.1437904
-0.1;0.2;359;-0.0;-0.1;0.1;0.0;0.0;0.0;-0.5;846.9;549.1;00:02:57;0.0;9;--.--;0;-19.4679306;-49.1437904
-0.4;0.3;0;0.0;-0.1;0.1;0.0;0.0;-0.0;0.0;847.2;0.0;00:00:00;0.0;--.--;--.--;0;-19.4679306;-49.1437904
-0.4;0.3;0;0.1;-0.1;0.0;0.0;0.0;0.0;0.0;847.2;0.0;00:00:00;0.0;--.--;--.--;29;-19.4679306;-49.1437904
-0.4;0.3;0;0.2;0.1;0.1;0.0;0.0;0.0;0.0;847.2;0.0;00:00:01;0.0;--.--;--.--;54;-19.4679306;-49.1437904
0.0;-0.0;0;-3.0;2.3;-0.1;0.0;0.0;0.1;0.0;847.3;0.0;00:00:02;0.0;--.--;--.--;73;-19.4679306;-49.1437905
-0.6;0.3;0;0.4;-0.1;-0.2;0.0;0.0;0.9;0.5;847.8;0.0;00:00:03;0.0;--.--;--.--;74;-19.4679305;-49.1437902
-0.3;0.4;0;0.8;0.7;0.2;0.0;0.0;1.3;1.6;848.9;0.0;00:00:04;0.0;--.--;--.--;72;-19.4679304;-49.1437900
-0.4;0.3;1;-0.1;-0.0;0.4;0.0;0.0;1.3;2.9;850.1;0.0;00:00:05;0.0;--.--;--.--;73;-19.4679304;-49.1437899
-0.3;0.3;1;-0.1;-0.2;0.2;0.0;0.0;1.4;4.3;851.5;0.0;00:00:06;0.0;--.--;--.--;73;-19.4679304;-49.1437898
-0.3;0.2;1;-0.3;-0.0;0.1;0.0;0.0;1.4;5.7;852.9;0.0;00:00:07;0.0;--.--;--.--;73;-19.4679306;-49.1437898
-0.5;0.2;1;-0.0;0.0;-0.1;0.0;0.0;1.5;7.1;854.3;0.0;00:00:08;0.1;--.--;--.--;72;-19.4679306;-49.1437896
-0.4;0.1;1;0.3;-0.2;-0.0;0.0;0.0;1.5;8.5;855.7;0.0;00:00:09;0.1;--.--;--.--;72;-19.4679306;-49.1437897
-0.3;0.3;1;0.0;-0.3;0.1;0.0;0.0;1.5;10.0;857.2;0.0;00:00:10;0.0;--.--;--.--;72;-19.4679305;-49.1437898
-0.3;0.2;1;-0.0;0.0;0.0;0.0;0.0;1.7;11.7;858.9;0.0;00:00:11;0.0;--.--;--.--;66;-19.4679303;-49.1437901
-0.4;0.2;1;0.3;-0.1;-0.0;0.0;0.0;1.0;12.9;860.1;0.0;00:00:12;0.0;--.--;--.--;70;-19.4679303;-49.1437901
-0.2;0.2;1;0.1;-0.1;0.1;0.0;0.0;0.7;13.7;860.9;0.0;00:00:13;0.0;--.--;--.--;70;-19.4679302;-49.1437902
1.6;-2.3;359;12.1;-23.5;-3.4;0.0;0.0;0.4;14.2;861.4;0.0;00:00:14;0.0;--.--;--.--;69;-19.4679301;-49.1437903
2.3;-19.6;359;0.6;-1.4;0.3;1.8;0.0;0.3;14.5;861.8;0.0;00:00:15;0.9;--.--;--.--;72;-19.4679278;-49.1437896
2.8;-15.4;0;0.9;17.0;-0.8;4.2;0.0;0.1;14.7;861.9;4.1;00:00:16;4.2;--.--;189;72;-19.4679059;-49.1437859
1.3;-8.7;359;0.0;-0.9;-0.1;4.4;0.0;0.0;14.7;861.9;8.2;00:00:17;8.6;--.--;189;71;-19.4678748;-49.1437809
1.4;-9.5;359;0.1;-0.3;0.0;4.4;0.0;0.0;14.7;861.9;12.3;00:00:18;12.9;--.--;189;71;-19.4678276;-49.1437724
1.4;-9.7;359;-0.1;-0.1;0.0;4.5;0.0;-0.0;14.7;861.9;16.4;00:00:19;17.5;--.--;189;71;-19.4677961;-49.1437667
1.4;-9.8;359;-0.1;-0.3;0.0;4.6;0.0;-0.0;14.7;861.9;20.5;00:00:20;21.8;--.--;189;71;-19.4677482;-49.1437579
1.4;-9.9;359;-0.3;-0.2;-0.0;4.7;0.0;-0.0;14.7;861.9;24.6;00:00:21;26.1;--.--;189;71;-19.4677156;-49.1437521
1.5;-10.0;359;-0.0;-0.1;0.1;4.7;0.0;-0.0;14.7;862.0;30.7;00:00:22;31.0;--.--;189;71;-19.4676661;-49.1437433
1.4;-10.0;359;-0.0;0.1;0.2;4.8;0.0;-0.0;14.8;862.0;34.8;00:00:23;35.6;--.--;189;71;-19.4676244;-49.1437359
1.4;-10.0;359;0.2;-0.0;0.1;4.8;0.0;-0.0;14.8;862.0;38.9;00:00:24;40.3;--.--;189;71;-19.4675815;-49.1437284
1.5;-9.9;359;-0.6;-0.1;0.2;4.8;0.0;-0.0;14.8;862.0;45.0;00:00:25;45.3;--.--;189;71;-19.4675387;-49.1437210
1.5;-10.0;359;-0.1;-0.0;-0.0;4.9;0.0;-0.0;14.8;862.0;49.1;00:00:26;49.8;--.--;189;71;-19.4675044;-49.1437150
1.6;-9.9;359;0.1;0.1;-0.2;4.9;0.0;-0.0;14.8;862.0;53.2;00:00:27;54.8;--.--;189;71;-19.4674611;-49.1437077
1.7;-9.9;0;-0.2;0.2;-0.1;4.9;0.0;-0.0;14.8;862.0;59.4;00:00:28;59.7;--.--;189;71;-19.4674091;-49.1436988
1.5;-10.0;0;-0.2;-0.5;-0.1;4.9;0.0;-0.0;14.8;862.0;63.6;00:00:29;64.5;--.--;189;71;-19.4673742;-49.1436927
1.5;-10.0;0;-0.2;0.1;0.0;4.9;0.0;-0.0;14.8;862.0;67.7;00:00:30;69.4;--.--;189;71;-19.4673220;-49.1436836
1.6;-10.0;0;0.0;0.0;0.0;4.9;0.0;-0.0;14.8;862.0;73.8;00:00:31;74.5;--.--;189;71;-19.4672869;-49.1436775
1.5;-10.0;359;-0.0;-0.2;0.1;4.9;0.0;-0.0;14.8;862.0;77.9;00:00:32;79.2;--.--;189;71;-19.4672869;-49.1436775
1.6;-10.1;0;0.4;-0.1;-0.1;5.0;0.0;-0.0;14.8;862.1;84.2;00:00:33;84.3;--.--;189;71;-19.4671989;-49.1436621
1.5;-10.1;359;-0.5;-0.1;0.0;5.0;0.0;-0.1;14.8;862.1;88.3;00:00:34;89.2;--.--;189;71;-19.4671989;-49.1436621
1.4;-10.1;0;-0.0;-0.0;-0.2;5.0;0.0;-0.1;14.8;862.1;92.4;00:00:35;94.1;--.--;189;71;-19.4671459;-49.1436526
1.4;-10.0;359;-0.1;0.2;-0.1;5.0;0.0;-0.1;14.9;862.1;98.6;00:00:36;99.1;--.--;189;71;-19.4671017;-49.1436446
1.5;-10.0;359;-0.2;-0.1;0.0;5.0;0.0;-0.1;14.9;862.1;102.6;00:00:37;104.0;--.--;189;71;-19.4670660;-49.1436382
1.5;-10.0;0;0.1;-0.1;-0.0;5.0;0.0;-0.1;14.9;862.1;108.7;00:00:38;108.9;--.--;189;71;-19.4670125;-49.1436289
1.5;-10.1;359;0.0;0.2;-0.1;5.0;0.0;-0.1;14.9;862.1;112.8;00:00:39;113.9;--.--;189;71;-19.4669682;-49.1436212
1.6;-10.0;359;0.3;0.9;-0.1;5.0;0.0;-0.1;14.9;862.1;118.8;00:00:40;118.8;--.--;189;71;-19.4669326;-49.1436149
1.5;-9.9;0;-0.4;-0.0;0.0;5.0;0.0;-0.1;14.9;862.1;122.9;00:00:41;123.9;--.--;189;71;-19.4668880;-49.1436071
1.4;-10.0;359;-0.1;0.1;0.0;5.0;0.0;-0.1;14.9;862.1;127.0;00:00:42;128.8;--.--;189;71;-19.4668433;-49.1435992
1.5;-10.0;0;0.3;-0.4;-0.1;5.0;0.0;-0.1;14.9;862.1;133.2;00:00:43;133.5;--.--;189;71;-19.4667992;-49.1435912
1.5;-10.2;359;0.1;0.3;-0.0;5.0;0.0;-0.1;14.9;862.1;137.3;00:00:44;138.4;--.--;189;71;-19.4667550;-49.1435833
1.5;-10.1;0;-0.0;-0.0;-0.1;5.0;0.0;-0.1;14.9;862.1;141.4;00:00:45;143.3;--.--;189;71;-19.4667109;-49.1435757
1.4;-10.1;0;-0.0;-0.2;0.0;5.0;0.0;-0.1;14.9;862.1;147.5;00:00:46;148.4;--.--;189;71;-19.4666575;-49.1435664
1.5;-10.1;0;0.1;0.2;-0.0;5.0;0.0;-0.1;14.9;862.1;151.6;00:00:47;153.3;--.--;189;71;-19.4666221;-49.1435603
1.5;-10.2;0;0.0;-0.1;0.1;5.0;0.0;-0.1;14.9;862.2;157.8;00:00:48;158.4;--.--;189;71;-19.4665686;-49.1435511
1.7;-10.1;0;-0.3;-0.1;0.0;5.0;0.0;-0.1;14.9;862.2;161.9;00:00:49;163.2;--.--;189;71;-19.4665244;-49.1435435
1.4;-10.1;359;-0.1;-0.0;-0.0;5.0;0.0;-0.1;14.9;862.2;168.0;00:00:50;168.2;--.--;189;71;-19.4664888;-49.1435373
1.5;-10.1;359;-0.3;-0.2;-0.0;5.0;0.0;-0.1;14.9;862.2;172.1;00:00:51;173.1;--.--;189;71;-19.4664444;-49.1435293
1.3;-10.1;359;0.2;0.2;0.1;5.0;0.0;-0.1;15.0;862.2;176.3;00:00:52;178.0;--.--;189;71;-19.4664001;-49.1435212
1.4;-10.0;359;-0.1;-0.0;0.0;5.0;0.0;-0.0;15.0;862.2;182.6;00:00:53;183.0;--.--;189;71;-19.4663557;-49.1435133
1.5;-10.0;0;0.3;-0.0;-0.0;5.0;0.0;-0.0;14.9;862.2;186.7;00:00:54;188.2;--.--;189;71;-19.4663026;-49.1435039
1.4;-10.0;359;0.0;-0.1;-0.1;5.0;0.0;-0.0;14.9;862.2;192.9;00:00:55;192.9;--.--;189;71;-19.4662580;-49.1434960
1.4;-9.9;0;-0.0;0.2;0.1;5.0;0.0;-0.0;14.9;862.2;197.2;00:00:56;198.0;--.--;189;71;-19.4662227;-49.1434896
1.4;-10.0;0;0.1;0.1;-0.0;5.0;0.0;0.0;14.9;862.1;201.2;00:00:57;203.0;--.--;189;71;-19.4661696;-49.1434801
1.2;-10.0;359;0.2;0.2;-0.0;5.0;0.0;0.0;14.9;862.1;207.4;00:00:58;207.9;--.--;189;71;-19.4661342;-49.1434737
1.4;-10.0;359;-0.3;0.1;0.0;5.0;0.0;0.0;14.9;862.1;211.6;00:00:59;213.0;--.--;189;71;-19.4660902;-49.1434657
1.4;-9.9;0;0.1;-0.3;-0.1;5.0;0.0;0.1;14.9;862.1;217.8;00:01:00;217.9;--.--;189;71;-19.4660460;-49.1434580
1.6;-9.9;0;0.2;0.3;0.1;5.0;0.0;0.1;14.9;862.1;222.0;00:01:01;222.7;--.--;189;71;-19.4659930;-49.1434488
1.4;-10.0;0;0.2;0.2;-0.1;5.0;0.0;0.1;14.9;862.1;226.1;00:01:02;227.7;--.--;189;71;-19.4659487;-49.1434415
1.6;-9.9;0;-0.1;-0.1;-0.2;5.0;0.0;0.1;14.9;862.1;232.3;00:01:03;232.7;--.--;189;71;-19.4659135;-49.1434354
1.5;-10.0;0;-0.2;-0.0;0.0;5.0;0.0;0.1;14.9;862.1;236.5;00:01:04;237.7;--.--;189;71;-19.4658605;-49.1434262
1.5;-9.9;0;-0.0;-0.1;-0.0;5.0;0.0;0.1;14.9;862.1;240.7;00:01:05;242.5;--.--;189;71;-19.4658249;-49.1434199
1.3;-8.5;0;-2.6;17.4;-0.3;5.0;0.0;0.1;14.9;862.1;246.9;00:01:06;247.2;--.--;189;71;-19.4657715;-49.1434107
-0.9;2.3;0;0.8;0.6;-0.6;3.8;0.0;0.1;14.9;862.1;251.0;00:01:07;251.5;--.--;189;70;-19.4657361;-49.1434046
-0.8;2.8;0;5.6;0.8;0.0;2.7;0.0;0.0;14.9;862.2;253.1;00:01:08;254.5;--.--;189;71;-19.4656905;-49.1433961
-2.1;9.8;359;0.2;30.3;0.5;1.5;0.0;0.0;15.0;862.2;255.1;00:01:09;256.3;189;189;71;-19.4656666;-49.1433919
-2.3;15.1;0;0.5;-2.5;-0.2;1.0;0.0;0.0;15.0;862.2;255.1;00:01:10;256.2;189;189;71;-19.4656555;-49.1433898
-2.9;18.1;359;-1.8;6.6;0.2;2.8;0.0;0.0;15.0;862.2;255.1;00:01:11;253.9;189;189;72;-19.4656622;-49.1433906
-3.5;8.2;0;-0.5;-18.4;-1.2;4.3;0.0;-0.0;15.0;862.2;259.1;00:01:12;250.4;189;189;71;-19.4656815;-49.1433933
-1.8;9.4;359;-0.1;2.0;0.0;4.1;0.0;0.0;15.0;862.2;263.2;00:01:13;246.4;189;189;71;-19.4657252;-49.1434009
-1.4;6.0;0;1.3;-15.3;-0.3;4.1;0.0;0.0;14.9;862.2;267.3;00:01:14;242.2;189;189;70;-19.4657543;-49.1434064
-0.5;1.7;0;0.2;-2.6;-0.0;3.3;0.0;0.1;14.9;862.1;271.4;00:01:15;238.8;189;189;70;-19.4657979;-49.1434147
0.2;0.1;0;0.8;-0.9;0.1;2.5;0.0;0.1;14.9;862.1;273.5;00:01:16;236.0;189;189;70;-19.4658271;-49.1434204
3.7;2.2;0;27.0;-7.7;0.2;2.1;0.0;0.1;14.9;862.1;275.5;00:01:17;233.9;126;189;70;-19.4658482;-49.1434243
9.9;-1.7;359;0.4;4.6;0.9;2.0;0.0;0.1;14.9;862.1;277.5;00:01:18;232.3;126;190;71;-19.4658627;-49.1434258
15.7;14.0;0;-16.3;-1.1;-2.9;3.7;0.0;0.1;15.0;862.2;279.5;00:01:19;231.3;126;190;73;-19.4658784;-49.1434084
8.0;5.7;359;1.9;2.4;0.5;4.5;0.0;0.1;14.9;862.1;283.6;00:01:20;229.7;126;191;71;-19.4658926;-49.1433819
8.3;6.0;0;0.1;0.4;-0.1;4.5;0.0;0.1;14.9;862.1;289.8;00:01:21;228.1;126;192;71;-19.4659189;-49.1433379
0.5;1.6;359;2.4;-3.8;0.4;4.2;0.0;0.1;14.9;862.1;293.9;00:01:22;226.6;126;193;70;-19.4659362;-49.1433085
-0.4;-0.3;0;-1.7;-2.1;0.1;3.0;0.0;0.1;14.9;862.2;296.0;00:01:23;225.5;126;194;70;-19.4659598;-49.1432691
3.8;3.6;0;3.8;-3.1;-0.0;2.0;0.0;0.0;15.0;862.2;300.1;00:01:24;224.8;126;195;70;-19.4659729;-49.1432466
-12.8;9.1;0;17.1;3.1;0.4;1.7;0.0;0.1;15.0;862.2;302.1;00:01:25;223.9;191;195;71;-19.4659834;-49.1432303
-8.7;20.5;359;0.8;13.0;2.4;2.9;0.0;0.1;15.0;862.2;304.2;00:01:26;221.7;191;195;73;-19.4659959;-49.1432271
-2.4;10.1;0;1.0;-20.4;-0.5;4.6;0.0;-0.0;15.0;862.2;308.3;00:01:27;217.7;191;195;71;-19.4660223;-49.1432353
-2.9;10.1;359;-0.4;0.9;0.0;4.5;0.0;0.0;15.0;862.2;312.3;00:01:28;213.0;191;195;71;-19.4660698;-49.1432488
-2.7;10.5;359;0.1;0.5;-0.1;4.6;0.0;0.0;15.0;862.2;316.3;00:01:29;208.5;191;195;71;-19.4661012;-49.1432578
-2.8;10.6;359;-0.1;0.1;-0.1;4.7;0.0;0.0;14.9;862.2;320.4;00:01:30;203.8;191;195;71;-19.4661493;-49.1432713
-5.5;10.1;359;7.6;-0.2;1.0;4.7;0.0;0.1;14.9;862.2;326.6;00:01:31;199.1;196;195;71;-19.4661902;-49.1432826
-3.0;10.7;359;0.3;0.1;0.0;4.8;0.0;0.1;14.9;862.2;330.7;00:01:32;194.4;196;195;71;-19.4662232;-49.1432921
-3.0;10.7;0;-0.4;0.0;0.0;4.8;0.0;0.1;14.9;862.2;334.8;00:01:33;189.6;196;195;71;-19.4662731;-49.1433068
-3.0;10.7;0;0.6;-1.3;-0.0;4.9;0.0;0.1;14.9;862.2;340.9;00:01:34;184.7;196;195;71;-19.4663151;-49.1433193
-0.2;0.9;0;1.5;-3.4;-0.1;4.0;0.0;0.1;14.9;862.1;345.0;00:01:35;180.3;196;195;70;-19.4663484;-49.1433292
0.8;-0.5;0;1.1;9.1;0.0;2.6;0.0;0.1;14.9;862.1;347.1;00:01:36;177.1;196;195;71;-19.4663877;-49.1433412
10.9;3.2;0;25.3;-2.3;-0.0;2.2;0.0;0.1;14.9;862.2;351.1;00:01:37;174.7;139;195;71;-19.4664055;-49.1433463
14.7;11.0;1;1.0;22.2;-4.6;2.6;0.0;0.1;15.0;862.2;353.1;00:01:38;173.1;139;196;72;-19.4664281;-49.1433444
8.5;9.1;359;-22.0;-19.5;3.3;4.7;0.0;-0.0;15.0;862.2;357.2;00:01:39;171.2;139;197;71;-19.4664433;-49.1433289
6.7;7.9;0;0.7;0.8;0.0;4.6;0.0;0.0;14.9;862.2;361.3;00:01:40;169.1;139;198;71;-19.4664723;-49.1432983
5.5;6.8;359;-16.3;-16.3;0.4;4.7;0.0;0.0;14.9;862.2;365.4;00:01:41;167.0;139;200;70;-19.4665079;-49.1432609
-0.2;1.0;0;-1.4;-1.7;-0.1;3.6;0.0;0.0;14.9;862.2;369.5;00:01:42;165.3;139;201;70;-19.4665312;-49.1432365
-0.9;-0.4;0;0.8;-1.2;-0.2;2.5;0.0;0.0;15.0;862.2;373.5;00:01:43;164.1;139;202;70;-19.4665541;-49.1432130
-7.0;7.2;0;-26.2;-1.3;0.1;2.1;0.0;0.0;15.0;862.2;375.5;00:01:44;163.2;199;203;71;-19.4665725;-49.1431940
-10.2;11.4;359;-5.3;30.1;2.3;2.2;0.0;0.0;15.0;862.2;377.6;00:01:45;161.5;199;203;72;-19.4665886;-49.1431872
-3.8;17.2;0;18.1;-17.9;-0.6;4.4;0.0;-0.0;15.0;862.2;379.6;00:01:46;158.3;199;203;72;-19.4666051;-49.1431944
-4.0;9.6;359;-0.2;0.9;0.1;4.6;0.0;-0.0;15.0;862.2;383.7;00:01:47;153.8;199;203;71;-19.4666402;-49.1432114
-4.3;10.1;359;0.3;0.2;-0.0;4.6;0.0;0.0;15.0;862.2;389.8;00:01:48;149.1;199;203;71;-19.4666861;-49.1432316
-1.1;1.5;0;3.2;2.2;-0.2;4.2;0.0;0.0;15.0;862.2;393.9;00:01:49;144.6;199;203;70;-19.4667248;-49.1432488
-3.5;9.2;359;-1.3;-6.7;0.2;3.4;0.0;0.0;15.0;862.2;398.0;00:01:50;141.0;199;203;70;-19.4667569;-49.1432633
10.8;8.7;359;25.0;-0.3;0.0;3.4;0.0;0.0;15.0;862.2;400.0;00:01:51;137.6;174;203;72;-19.4667797;-49.1432729
0.6;20.0;0;-5.3;-22.4;-0.8;4.0;0.0;0.0;15.0;862.3;404.1;00:01:52;134.4;174;204;73;-19.4668096;-49.1432774
1.4;10.6;359;-0.3;-0.1;0.2;4.8;0.0;-0.0;15.0;862.2;410.2;00:01:53;130.3;174;205;71;-19.4668493;-49.1432707
1.3;10.9;359;-0.1;0.3;-0.1;4.8;0.0;-0.0;15.0;862.2;414.2;00:01:54;126.4;174;206;71;-19.4668921;-49.1432636
0.2;1.3;359;-1.4;2.2;0.2;4.2;0.0;-0.0;15.0;862.2;418.2;00:01:55;122.5;174;207;70;-19.4669428;-49.1432550
-0.6;5.8;359;1.4;24.5;0.1;3.2;0.0;-0.0;15.0;862.2;422.3;00:01:56;119.7;174;208;70;-19.4669712;-49.1432500
-11.6;5.3;0;-25.0;-2.6;-0.1;3.0;0.0;-0.0;15.0;862.2;424.3;00:01:57;117.3;207;209;71;-19.4670042;-49.1432449
-13.7;18.4;358;17.9;17.9;5.1;3.4;0.0;0.0;15.1;862.3;428.4;00:01:58;114.2;207;209;73;-19.4670300;-49.1432512
-5.5;8.3;0;-0.6;6.1;0.2;4.8;0.0;-0.1;15.0;862.3;432.5;00:01:59;109.7;207;209;71;-19.4670559;-49.1432682
-5.4;9.6;359;0.5;0.4;0.1;4.7;0.0;-0.0;15.0;862.2;438.6;00:02:00;105.0;207;209;71;-19.4671005;-49.1432954
-5.1;9.8;359;0.4;0.1;0.1;4.8;0.0;-0.0;15.0;862.2;442.6;00:02:01;100.2;207;209;71;-19.4671305;-49.1433138
-5.1;9.9;359;-0.2;0.2;0.1;4.8;0.0;0.0;15.0;862.2;446.6;00:02:02;95.4;207;209;71;-19.4671682;-49.1433367
-5.1;9.9;359;-0.6;-0.5;0.0;4.9;0.0;0.0;15.0;862.2;452.8;00:02:03;90.6;209;209;71;-19.4672136;-49.1433640
-5.2;9.8;0;-0.1;-0.2;0.0;4.9;0.0;0.0;15.0;862.2;456.9;00:02:04;85.8;209;209;71;-19.4672136;-49.1433640
-5.2;9.8;359;-0.3;-0.1;-0.0;4.9;0.0;0.0;15.0;862.2;461.0;00:02:05;80.8;209;209;71;-19.4672901;-49.1434095
-4.9;9.3;0;7.2;-10.1;0.0;4.9;0.0;0.1;15.0;862.2;467.1;00:02:06;76.0;209;209;71;-19.4672901;-49.1434095
0.1;2.5;0;-2.9;19.7;0.0;4.0;0.0;0.0;14.9;862.2;471.2;00:02:07;71.5;209;209;70;-19.4673210;-49.1434278
-0.5;9.3;0;25.2;11.0;0.5;3.6;0.0;0.1;14.9;862.2;475.3;00:02:08;67.9;184;209;71;-19.4673646;-49.1434539
2.0;20.8;0;-18.9;23.1;-1.9;3.7;0.0;0.1;14.9;862.2;477.3;00:02:09;64.5;184;210;73;-19.4673938;-49.1434711
-0.1;10.6;359;-0.7;5.6;-0.5;4.9;0.0;0.0;15.0;862.2;483.5;00:02:10;60.4;184;212;71;-19.4674238;-49.1434822
-0.4;11.1;359;0.1;-0.1;0.2;4.9;0.0;0.1;14.9;862.2;487.6;00:02:11;56.3;184;215;71;-19.4674556;-49.1434835
-0.2;3.0;0;1.0;-24.0;0.1;4.8;0.0;0.1;14.9;862.1;491.7;00:02:12;52.4;184;217;70;-19.4675083;-49.1434855
0.1;-0.5;0;0.3;-1.5;-0.1;3.4;0.0;0.1;14.9;862.1;495.8;00:02:13;49.1;184;220;70;-19.4675521;-49.1434870
-3.8;3.9;359;-27.0;-8.5;-0.4;2.9;0.0;0.1;14.9;862.1;499.9;00:02:14;46.9;220;222;70;-19.4675897;-49.1434883
-13.7;7.0;359;-6.5;26.6;3.0;2.8;0.0;0.1;14.9;862.1;501.9;00:02:15;44.4;220;224;72;-19.4676168;-49.1434893
-8.5;10.0;0;23.5;-23.0;-2.8;4.8;0.0;0.1;14.9;862.1;505.9;00:02:16;40.5;220;224;71;-19.4676360;-49.1434933
-7.2;8.0;359;-0.3;1.1;0.1;4.7;0.0;0.1;14.9;862.1;510.0;00:02:17;35.7;220;224;71;-19.4676587;-49.1435141
-7.3;8.3;359;0.2;0.2;0.2;4.8;0.0;0.1;14.9;862.1;516.1;00:02:18;31.0;220;224;71;-19.4676960;-49.1435520
-7.2;8.4;359;0.1;-0.2;0.1;4.8;0.0;0.1;14.9;862.1;520.2;00:02:19;26.1;220;224;71;-19.4677268;-49.1435837
-7.2;8.5;359;1.1;1.2;0.2;4.9;0.0;0.1;14.9;862.1;524.4;00:02:20;21.3;224;224;71;-19.4677520;-49.1436096
-7.3;8.4;0;-0.4;-0.3;-0.1;4.9;0.0;0.1;14.9;862.1;530.5;00:02:21;16.5;224;224;71;-19.4677899;-49.1436481
-7.4;8.5;359;-0.1;-0.2;-0.0;4.9;0.0;0.1;14.9;862.2;534.7;00:02:22;11.5;224;224;71;-19.4678157;-49.1436740
0.2;0.7;0;2.3;-2.8;-0.3;3.9;0.0;0.1;14.9;862.2;538.9;00:02:23;7.0;224;224;70;-19.4678481;-49.1437064
1.0;-0.6;0;2.0;-1.1;-0.2;2.6;0.0;0.1;14.9;862.2;542.9;00:02:24;3.9;224;224;71;-19.4678845;-49.1437431
1.3;-0.9;0;-2.3;0.1;0.3;1.5;0.0;0.1;14.9;862.1;544.9;00:02:25;1.9;224;225;70;-19.4679024;-49.1437610
1.1;-0.5;0;1.9;0.6;-0.0;0.7;0.0;0.1;14.9;862.2;544.9;00:02:26;0.8;224;--.--;70;-19.4679192;-49.1437780
0.5;0.0;0;-0.5;0.7;-0.2;0.4;0.0;0.0;14.9;862.2;547.0;00:02:27;0.3;224;--.--;70;-19.4679262;-49.1437853
0.2;0.4;0;-0.4;0.4;-0.1;0.2;0.0;0.0;15.0;862.2;547.0;00:02:28;0.1;224;--.--;70;-19.4679290;-49.1437882
0.0;0.5;0;-0.3;-0.2;0.1;0.1;0.0;0.0;15.0;862.2;547.0;00:02:29;0.0;224;--.--;70;-19.4679305;-49.1437899
-0.7;1.7;0;3.3;-3.9;0.1;0.1;0.0;-1.1;15.0;862.2;547.0;00:02:30;0.0;224;--.--;69;-19.4679310;-49.1437906
-0.2;0.9;0;1.0;-1.6;0.0;0.1;0.0;-1.0;14.5;861.7;547.0;00:02:31;0.1;224;--.--;71;-19.4679310;-49.1437908
-0.1;0.7;0;0.2;0.3;-0.1;0.1;0.0;-1.0;13.6;860.8;547.0;00:02:32;0.1;224;--.--;72;-19.4679314;-49.1437912
0.1;0.6;0;0.1;0.1;0.1;0.0;0.0;-1.0;12.6;859.8;547.0;00:02:33;0.2;224;--.--;72;-19.4679316;-49.1437914
-0.0;0.7;0;-0.2;0.4;-0.2;0.0;0.0;-1.0;11.6;858.9;547.0;00:02:34;0.1;224;--.--;72;-19.4679316;-49.1437913
-0.1;0.8;0;0.0;0.1;0.1;0.0;0.0;-1.0;10.7;857.9;547.0;00:02:35;0.1;224;--.--;72;-19.4679315;-49.1437911
-0.1;0.7;0;0.3;0.2;-0.1;0.0;0.0;-1.0;9.7;856.9;547.0;00:02:36;0.1;224;--.--;72;-19.4679314;-49.1437907
-0.2;0.7;0;0.1;-0.4;-0.1;0.0;0.0;-1.0;8.8;856.0;547.0;00:02:37;0.1;224;--.--;72;-19.4679313;-49.1437904
-0.2;0.7;0;0.0;0.0;0.3;0.0;0.0;-1.0;7.9;855.1;547.0;00:02:38;0.1;224;--.--;72;-19.4679313;-49.1437903
-0.1;0.6;0;0.2;-0.3;0.0;0.0;0.0;-0.9;7.0;854.2;547.0;00:02:39;0.1;224;--.--;72;-19.4679314;-49.1437903
-0.0;0.7;0;0.2;0.1;0.1;0.0;0.0;-0.8;6.2;853.4;547.0;00:02:40;0.1;224;--.--;72;-19.4679313;-49.1437905
-0.0;0.7;0;0.2;-0.1;0.1;0.0;0.0;-0.8;5.4;852.6;547.0;00:02:41;0.1;224;--.--;72;-19.4679313;-49.1437907
-0.0;0.7;0;-0.1;0.3;-0.0;0.0;0.0;-0.8;4.7;851.9;547.0;00:02:42;0.1;224;--.--;71;-19.4679312;-49.1437909
-0.0;0.8;0;0.0;0.1;0.2;0.0;0.0;-0.8;4.0;851.2;547.0;00:02:43;0.1;224;--.--;71;-19.4679310;-49.1437909
-0.1;0.8;0;-0.3;0.3;-0.1;0.0;0.0;-0.8;3.3;850.5;547.0;00:02:44;0.1;224;--.--;71;-19.4679311;-49.1437908
-0.2;0.8;0;-0.2;0.2;-0.1;0.0;0.0;-0.7;2.6;849.8;547.0;00:02:45;0.1;224;--.--;71;-19.4679312;-49.1437906
-0.2;0.8;0;0.3;-0.6;-0.1;0.0;0.0;-0.7;1.8;849.1;547.0;00:02:46;0.1;224;--.--;71;-19.4679313;-49.1437905
-0.2;0.8;0;-0.1;0.3;-0.1;0.0;0.0;-0.7;1.1;848.4;547.0;00:02:47;0.1;224;--.--;71;-19.4679315;-49.1437906
-0.2;0.8;0;0.2;-0.3;0.1;0.0;0.0;-0.7;0.4;847.6;547.0;00:02:48;0.1;224;--.--;71;-19.4679317;-49.1437906
-0.2;0.8;0;-0.4;0.7;-0.0;0.0;0.0;-0.7;-0.4;846.9;547.0;00:02:49;0.1;224;--.--;67;-19.4679319;-49.1437907
-0.2;0.8;0;0.5;-0.3;-0.0;0.1;0.0;-1.0;-0.5;846.7;547.0;00:02:50;0.1;224;--.--;69;-19.4679318;-49.1437906
-0.2;0.7;0;-0.2;0.2;0.0;0.0;0.0;-1.0;-0.9;846.3;547.0;00:02:51;0.1;224;--.--;70;-19.4679316;-49.1437907
-0.3;1.0;0;-0.1;0.0;0.0;0.0;0.0;-0.6;-1.1;846.1;547.0;00:02:52;0.1;224;--.--;58;-19.4679313;-49.1437906
-0.4;1.0;0;-0.1;-0.0;-0.1;0.0;0.0;-0.5;-1.1;846.1;547.0;00:02:53;0.1;224;--.--;47;-19.4679312;-49.1437906
-0.4;1.0;0;0.0;-0.1;0.0;0.0;0.0;-0.4;-1.1;846.1;547.0;00:02:54;0.1;224;--.--;35;-19.4679313;-49.1437906
-0.4;1.0;0;-0.2;-0.0;0.0;0.0;0.0;-0.2;-1.0;846.2;547.0;00:02:55;0.1;224;--.--;12;-19.4679313;-49.1437906
-0.4;1.0;0;-0.0;0.2;-0.0;0.0;0.0;-0.1;-0.9;846.3;547.0;00:02:56;0.1;224;--.--;0;-19.4679313;-49.1437905
-0.4;1.1;0;-0.0;0.0;-0.0;0.0;0.0;-0.0;-0.7;846.5;547.0;00:02:57;0.1;224;--.--;0;-19.4679312;-49.1437906
-0.4;1.0;0;-0.0;0.0;0.0;0.0;0.0;0.0;-0.7;846.5;547.0;00:02:58;0.1;9;--.--;0;-19.4679312;-49.1437906
-0.3;0.0;0;-0.0;-0.0;-0.0;0.0;0.0;0.0;0.0;847.3;0.0;00:00:00;0.0;--.--;--.--;3;-19.4679297;-49.1437896
-0.2;0.0;0;0.1;-0.2;-0.0;0.0;0.0;0.0;0.0;847.3;0.0;00:00:00;0.0;--.--;--.--;37;-19.4679297;-49.1437897
-0.2;0.0;0;-0.1;0.0;0.2;0.0;0.0;0.0;0.0;847.3;0.0;00:00:01;0.0;--.--;--.--;58;-19.4679297;-49.1437896
0.0;0.3;0;-1.7;-1.8;-0.0;0.0;0.0;0.3;0.0;847.3;0.0;00:00:02;0.0;--.--;--.--;75;-19.4679297;-49.1437896
-0.4;-0.1;0;-0.3;-0.0;-0.2;0.0;0.0;1.0;0.5;847.8;0.0;00:00:03;0.0;--.--;--.--;75;-19.4679299;-49.1437894
-0.2;-0.1;0;-0.3;0.0;0.7;0.0;0.0;1.3;1.6;848.8;0.0;00:00:05;0.1;--.--;--.--;73;-19.4679301;-49.1437893
-0.3;-0.2;0;-0.1;-0.1;0.1;0.0;0.0;1.3;2.8;850.1;0.0;00:00:05;0.1;--.--;--.--;73;-19.4679302;-49.1437892
-0.3;-0.1;0;0.1;-0.4;0.2;0.0;0.0;1.4;4.2;851.5;0.0;00:00:06;0.0;--.--;--.--;73;-19.4679302;-49.1437894
-0.2;-0.2;0;0.0;0.3;0.0;0.0;0.0;1.4;5.6;852.9;0.0;00:00:07;0.0;--.--;--.--;72;-19.4679302;-49.1437897
-0.3;-0.2;0;-0.1;0.3;0.1;0.0;0.0;1.5;7.0;854.3;0.0;00:00:08;0.0;--.--;--.--;73;-19.4679300;-49.1437898
-0.3;-0.1;0;0.1;0.3;-0.0;0.0;0.0;1.5;8.5;855.8;0.0;00:00:09;0.0;--.--;--.--;72;-19.4679299;-49.1437899
-0.2;-0.0;0;-0.3;-0.2;0.0;0.0;0.0;1.5;10.0;857.3;0.0;00:00:10;0.0;--.--;--.--;72;-19.4679296;-49.1437901
-0.3;-0.1;0;0.0;-0.1;-0.1;0.0;0.0;1.6;11.8;859.1;0.0;00:00:11;0.0;--.--;--.--;66;-19.4679295;-49.1437901
-0.3;-0.0;0;0.0;-0.1;-0.1;0.0;0.0;0.9;13.0;860.3;0.0;00:00:12;0.0;--.--;--.--;70;-19.4679294;-49.1437901
-0.2;-0.0;0;0.2;-0.1;-0.1;0.0;0.0;0.6;13.8;861.1;0.0;00:00:13;0.0;--.--;--.--;70;-19.4679294;-49.1437901
2.1;-11.4;359;-1.7;-23.4;1.5;0.2;0.0;0.3;14.3;861.6;0.0;00:00:14;0.1;--.--;--.--;72;-19.4679295;-49.1437902
2.5;-20.4;0;0.7;-3.5;0.1;2.5;0.0;0.1;14.7;861.9;0.0;00:00:15;1.7;--.--;190;72;-19.4679240;-49.1437887
3.2;-9.0;0;-0.3;21.6;-0.9;4.5;0.0;-0.1;14.8;862.0;4.1;00:00:16;5.7;--.--;188;70;-19.4679039;-49.1437857
1.8;-9.2;359;-0.7;-1.4;0.0;4.4;0.0;-0.1;14.7;862.0;8.2;00:00:17;9.9;--.--;189;71;-19.4678647;-49.1437795
1.5;-9.9;359;-0.5;-0.3;0.0;4.4;0.0;-0.1;14.7;862.0;14.2;00:00:18;14.3;--.--;189;71;-19.4678184;-49.1437709
-9.1;-11.1;356;-15.4;-1.6;0.4;4.5;0.0;-0.0;14.7;862.0;18.3;00:00:19;18.7;--.--;189;71;-19.4677873;-49.1437648
0.4;-10.2;356;-2.4;-1.2;-0.0;4.6;0.0;-0.0;14.7;862.0;22.4;00:00:20;23.0;--.--;187;71;-19.4677392;-49.1437619
-0.3;-10.3;356;-0.3;-0.3;0.0;4.7;0.0;-0.0;14.7;862.0;26.4;00:00:21;27.7;--.--;185;71;-19.4676982;-49.1437639
-0.2;-10.5;356;0.1;0.0;0.3;4.7;0.0;0.0;14.7;861.9;30.5;00:00:22;32.2;--.--;184;71;-19.4676567;-49.1437660
-0.2;-10.5;356;-0.0;-0.3;0.0;4.8;0.0;0.0;14.7;861.9;36.6;00:00:23;36.8;--.--;183;71;-19.4676147;-49.1437684
-0.2;-10.5;356;0.0;0.0;0.1;4.8;0.0;0.0;14.6;861.9;40.8;00:00:24;41.4;--.--;183;71;-19.4675809;-49.1437704
-0.1;-10.6;356;0.5;-0.1;-0.0;4.8;0.0;0.0;14.7;861.9;44.8;00:00:25;46.1;--.--;182;71;-19.4675290;-49.1437736
-0.1;-10.6;356;0.1;-0.2;-0.2;4.9;0.0;0.1;14.6;861.9;50.9;00:00:26;50.8;--.--;181;71;-19.4674859;-49.1437763
